{
"type": "FeatureCollection",
"crs": { "type": "name", "properties": { "name": "urn:ogc:def:crs:OGC:1.3:CRS84" } },
"features": [
{ "type": "Feature", "properties": { "id": 172.0, "nombre": "172 - BRASIL", "direccion": "Brasil y Defensa", "lat": -34.625426, "long": -58.371082, "RADIO_ID": "1_25_9" }, "geometry": { "type": "Point", "coordinates": [ -58.371082, -34.625426 ] } },
{ "type": "Feature", "properties": { "id": 221.0, "nombre": "157 - Senillosa y Zuviria", "direccion": "Senillosa 989", "lat": -34.6280441, "long": -58.4274042, "RADIO_ID": "7_23_4" }, "geometry": { "type": "Point", "coordinates": [ -58.427404200000012, -34.6280441 ] } },
{ "type": "Feature", "properties": { "id": 66.0, "nombre": "066 - Billinghurst", "direccion": "Carcova, De La 3508", "lat": -34.5945475, "long": -58.4138713, "RADIO_ID": "14_23_5" }, "geometry": { "type": "Point", "coordinates": [ -58.4138713, -34.5945475 ] } },
{ "type": "Feature", "properties": { "id": 339.0, "nombre": "211 - ARANGUREN Y SEGUI", "direccion": "Aranguren, Juan F., Dr. 1608", "lat": -34.61938, "long": -58.45471, "RADIO_ID": "6_2_8" }, "geometry": { "type": "Point", "coordinates": [ -58.45471, -34.61938 ] } },
{ "type": "Feature", "properties": { "id": 408.0, "nombre": "337 - UTN", "direccion": "Mozart 2400", "lat": -34.6600076, "long": -58.4683699, "RADIO_ID": "8_17_1" }, "geometry": { "type": "Point", "coordinates": [ -58.4683699, -34.6600076 ] } },
{ "type": "Feature", "properties": { "id": 31.0, "nombre": "031 - Padilla", "direccion": "Padilla y Alvarez, Julian", "lat": -34.6032081, "long": -58.4396457, "RADIO_ID": "15_18_6" }, "geometry": { "type": "Point", "coordinates": [ -58.4396457, -34.6032081 ] } },
{ "type": "Feature", "properties": { "id": 305.0, "nombre": "398 - Rojas", "direccion": "Rojas 731", "lat": -34.612684, "long": -58.44487, "RADIO_ID": "6_4_6" }, "geometry": { "type": "Point", "coordinates": [ -58.44487, -34.612684 ] } },
{ "type": "Feature", "properties": { "id": 223.0, "nombre": "178 - José Marmol", "direccion": "Marmol, Jose 803", "lat": -34.623456, "long": -58.424895, "RADIO_ID": "5_18_1" }, "geometry": { "type": "Point", "coordinates": [ -58.424895, -34.623456 ] } },
{ "type": "Feature", "properties": { "id": 343.0, "nombre": "219 - Parque Chacabuco II", "direccion": "Asamblea Av. y Faraday", "lat": -34.6357272, "long": -58.4411639, "RADIO_ID": "7_21_8" }, "geometry": { "type": "Point", "coordinates": [ -58.4411639, -34.6357272 ] } },
{ "type": "Feature", "properties": { "id": 179.0, "nombre": "179 - LA BOCA", "direccion": "Don Pedro De Mendoza Av. 1819", "lat": -34.638989, "long": -58.3605313, "RADIO_ID": "4_20_11" }, "geometry": { "type": "Point", "coordinates": [ -58.3605313, -34.638989 ] } },
{ "type": "Feature", "properties": { "id": 239.0, "nombre": "391 - Plaza República de Ecuador", "direccion": "Figueroa Alcorta, Pres. Av. y Dorrego Av.", "lat": -34.5650089, "long": -58.4201625, "RADIO_ID": "14_10_1" }, "geometry": { "type": "Point", "coordinates": [ -58.4201625, -34.5650089 ] } },
{ "type": "Feature", "properties": { "id": 99.0, "nombre": "099 - Malabia", "direccion": "Malabia 780", "lat": -34.5960961, "long": -58.435408, "RADIO_ID": "15_20_8" }, "geometry": { "type": "Point", "coordinates": [ -58.435408, -34.5960961 ] } },
{ "type": "Feature", "properties": { "id": 143.0, "nombre": "143 - BILLINGHURST Y VALENTÍN GOMEZ", "direccion": "Billinghurst 455", "lat": -34.604709, "long": -58.415807, "RADIO_ID": "5_3_6" }, "geometry": { "type": "Point", "coordinates": [ -58.415807, -34.604709 ] } },
{ "type": "Feature", "properties": { "id": 93.0, "nombre": "093 - CARLOS CALVO", "direccion": "Sarandi 1010", "lat": -34.620798, "long": -58.3944635, "RADIO_ID": "3_22_3" }, "geometry": { "type": "Point", "coordinates": [ -58.3944635, -34.620798 ] } },
{ "type": "Feature", "properties": { "id": 249.0, "nombre": "307 - LEONARDO PEREYRA", "direccion": "California 2990", "lat": -34.649843, "long": -58.388562, "RADIO_ID": "4_11_5" }, "geometry": { "type": "Point", "coordinates": [ -58.388562, -34.649843 ] } },
{ "type": "Feature", "properties": { "id": 352.0, "nombre": "236 - Guemes", "direccion": "Guemes 4718", "lat": -34.5807104, "long": -58.4248291, "RADIO_ID": "14_12_1" }, "geometry": { "type": "Point", "coordinates": [ -58.4248291, -34.5807104 ] } },
{ "type": "Feature", "properties": { "id": 430.0, "nombre": "037 - Claudia Pia Braudacco", "direccion": "Esmeralda y Rivadavia Av.", "lat": -34.607981, "long": -58.3778856, "RADIO_ID": "1_12_9" }, "geometry": { "type": "Point", "coordinates": [ -58.3778856, -34.607981 ] } },
{ "type": "Feature", "properties": { "id": 14.0, "nombre": "014 - Pacifico", "direccion": "Santa Fe Av. y Bullrich, Int. Av.", "lat": -34.577424, "long": -58.426387, "RADIO_ID": "14_9_12" }, "geometry": { "type": "Point", "coordinates": [ -58.426387, -34.577424 ] } },
{ "type": "Feature", "properties": { "id": 371.0, "nombre": "269 - Plaza De La Misericordia", "direccion": "Lautaro 493", "lat": -34.63281, "long": -58.455058, "RADIO_ID": "7_13_4" }, "geometry": { "type": "Point", "coordinates": [ -58.455058, -34.63281 ] } },
{ "type": "Feature", "properties": { "id": 90.0, "nombre": "090 - GUTIERREZ", "direccion": "Gutierrez, Juan Maria 2685", "lat": -34.5866324, "long": -58.3998749, "RADIO_ID": "2_10_3" }, "geometry": { "type": "Point", "coordinates": [ -58.3998749, -34.5866324 ] } },
{ "type": "Feature", "properties": { "id": 89.0, "nombre": "089 - Cabello", "direccion": "Cabello 3082", "lat": -34.5825475, "long": -58.4056671, "RADIO_ID": "14_29_3" }, "geometry": { "type": "Point", "coordinates": [ -58.4056671, -34.5825475 ] } },
{ "type": "Feature", "properties": { "id": 204.0, "nombre": "167 - Hipólito Yrigoyen", "direccion": "Yrigoyen, Hipolito Av. 4300", "lat": -34.6148209, "long": -58.4278453, "RADIO_ID": "5_12_2" }, "geometry": { "type": "Point", "coordinates": [ -58.4278453, -34.6148209 ] } },
{ "type": "Feature", "properties": { "id": 24.0, "nombre": "024 - ALSINA", "direccion": "Alsina, Adolfo E Irigoyen, Bernardo De", "lat": -34.610583, "long": -58.3808943, "RADIO_ID": "1_15_1" }, "geometry": { "type": "Point", "coordinates": [ -58.3808943, -34.610583 ] } },
{ "type": "Feature", "properties": { "id": 104.0, "nombre": "104 - Federico Lacroze", "direccion": "Guzman Av. 1100", "lat": -34.587617, "long": -58.455212, "RADIO_ID": "15_9_8" }, "geometry": { "type": "Point", "coordinates": [ -58.455212, -34.587617 ] } },
{ "type": "Feature", "properties": { "id": 48.0, "nombre": "034 - Colonia Express", "direccion": "Dellepiane y Pedro De Mendoza", "lat": -34.623937, "long": -58.362004, "RADIO_ID": "1_13_14" }, "geometry": { "type": "Point", "coordinates": [ -58.362004, -34.623937 ] } },
{ "type": "Feature", "properties": { "id": 252.0, "nombre": "331 - PLAZA HERRERA", "direccion": "Herrera y Quinquela Martin, Benito", "lat": -34.6445163, "long": -58.3762137, "RADIO_ID": "4_12_12" }, "geometry": { "type": "Point", "coordinates": [ -58.3762137, -34.6445163 ] } },
{ "type": "Feature", "properties": { "id": 118.0, "nombre": "118 - MEXICO", "direccion": "Saavedra y Mexico", "lat": -34.6170196, "long": -58.4026531, "RADIO_ID": "3_18_7" }, "geometry": { "type": "Point", "coordinates": [ -58.4026531, -34.6170196 ] } },
{ "type": "Feature", "properties": { "id": 175.0, "nombre": "147 - Constitución", "direccion": "Garay, Juan De Av. 1050", "lat": -34.6267408, "long": -58.3809349, "RADIO_ID": "1_28_8" }, "geometry": { "type": "Point", "coordinates": [ -58.3809349, -34.6267408 ] } },
{ "type": "Feature", "properties": { "id": 254.0, "nombre": "276 - PRIMERA JUNTA", "direccion": "Rivadavia Av. y Barco Centenera Del", "lat": -34.6206836, "long": -58.4415718, "RADIO_ID": "6_10_8" }, "geometry": { "type": "Point", "coordinates": [ -58.4415718, -34.6206836 ] } },
{ "type": "Feature", "properties": { "id": 309.0, "nombre": "298 - IRALA", "direccion": "Irala 695", "lat": -34.6350001, "long": -58.367059, "RADIO_ID": "4_20_1" }, "geometry": { "type": "Point", "coordinates": [ -58.367059, -34.6350001 ] } },
{ "type": "Feature", "properties": { "id": 117.0, "nombre": "117 - HUMBERTO 1°", "direccion": "Peru 1016", "lat": -34.6201008, "long": -58.3741759, "RADIO_ID": "1_23_9" }, "geometry": { "type": "Point", "coordinates": [ -58.3741759, -34.6201008 ] } },
{ "type": "Feature", "properties": { "id": 295.0, "nombre": "392 - Calasanz", "direccion": "San Jose De Calasanz y Valle", "lat": -34.624802, "long": -58.437683, "RADIO_ID": "6_16_5" }, "geometry": { "type": "Point", "coordinates": [ -58.437683, -34.624802 ] } },
{ "type": "Feature", "properties": { "id": 387.0, "nombre": "278 - Donato Alvarez", "direccion": "Garcia, Juan Agustin 1540", "lat": -34.6019716, "long": -58.4655301, "RADIO_ID": "15_8_10" }, "geometry": { "type": "Point", "coordinates": [ -58.4655301, -34.6019716 ] } },
{ "type": "Feature", "properties": { "id": 287.0, "nombre": "299 - HIDALGO", "direccion": "Hidalgo 796", "lat": -34.6103343, "long": -58.4409183, "RADIO_ID": "6_5_10" }, "geometry": { "type": "Point", "coordinates": [ -58.4409183, -34.6103343 ] } },
{ "type": "Feature", "properties": { "id": 111.0, "nombre": "111 - MACACHA GUEMES", "direccion": null, "lat": -34.6054877, "long": -58.3646858, "RADIO_ID": "1_13_1" }, "geometry": { "type": "Point", "coordinates": [ -58.3646858, -34.6054877 ] } },
{ "type": "Feature", "properties": { "id": 449.0, "nombre": "352 - San Jose de Flores", "direccion": "Avenida Rivadavia y Fray Cayetano", "lat": -34.6289374, "long": -58.4636606, "RADIO_ID": "7_6_8" }, "geometry": { "type": "Point", "coordinates": [ -58.4636606, -34.6289374 ] } },
{ "type": "Feature", "properties": { "id": 216.0, "nombre": "059 - Coronel Diaz", "direccion": "Guemes 3330", "lat": -34.5900976, "long": -58.4114907, "RADIO_ID": "14_27_4" }, "geometry": { "type": "Point", "coordinates": [ -58.4114907, -34.5900976 ] } },
{ "type": "Feature", "properties": { "id": 279.0, "nombre": "325 - CASTELLI Y PERON", "direccion": "Castelli y Peron, Juan Domingo, Tte. General", "lat": -34.6074177, "long": -58.4047854, "RADIO_ID": "3_8_10" }, "geometry": { "type": "Point", "coordinates": [ -58.4047854, -34.6074177 ] } },
{ "type": "Feature", "properties": { "id": 432.0, "nombre": "187 - Jose Maria Moreno", "direccion": "Moreno, Jose Maria Av. 141", "lat": -34.620249, "long": -58.435877, "RADIO_ID": "6_18_2" }, "geometry": { "type": "Point", "coordinates": [ -58.435877, -34.620249 ] } },
{ "type": "Feature", "properties": { "id": 174.0, "nombre": "174 - MINISTERIO DE EDUCACION", "direccion": "Alvear, Marcelo T. De y Rodriguez Peña", "lat": -34.597225, "long": -58.391768, "RADIO_ID": "2_7_8" }, "geometry": { "type": "Point", "coordinates": [ -58.391768, -34.597225 ] } },
{ "type": "Feature", "properties": { "id": 354.0, "nombre": "241 - Sanatorio Mendez", "direccion": "Hidalgo 512", "lat": -34.613457, "long": -58.4401581, "RADIO_ID": "6_6_6" }, "geometry": { "type": "Point", "coordinates": [ -58.4401581, -34.613457 ] } },
{ "type": "Feature", "properties": { "id": 367.0, "nombre": "287 - Belaustegui", "direccion": "Belaustegui, Luis, Dr. 2874", "lat": -34.6163487, "long": -58.4772418, "RADIO_ID": "11_18_5" }, "geometry": { "type": "Point", "coordinates": [ -58.4772418, -34.6163487 ] } },
{ "type": "Feature", "properties": { "id": 326.0, "nombre": "343 - POMAR", "direccion": "Pomar, Gregorio Tte. Cnel. 4152", "lat": -34.6411734, "long": -58.4202266, "RADIO_ID": "4_3_8" }, "geometry": { "type": "Point", "coordinates": [ -58.4202266, -34.6411734 ] } },
{ "type": "Feature", "properties": { "id": 219.0, "nombre": "140 - Las Casas", "direccion": "Las Casas 3587", "lat": -34.6351732, "long": -58.4157035, "RADIO_ID": "5_22_10" }, "geometry": { "type": "Point", "coordinates": [ -58.4157035, -34.6351732 ] } },
{ "type": "Feature", "properties": { "id": 415.0, "nombre": "386 - Gavilan Y Vallese", "direccion": "Gavilan 786", "lat": -34.6203961, "long": -58.4637146, "RADIO_ID": "7_3_6" }, "geometry": { "type": "Point", "coordinates": [ -58.46371460000001, -34.6203961 ] } },
{ "type": "Feature", "properties": { "id": 141.0, "nombre": "141 - SOLIS Y ALSINA", "direccion": "Solis 225", "lat": -34.6115231, "long": -58.3904968, "RADIO_ID": "1_16_9" }, "geometry": { "type": "Point", "coordinates": [ -58.3904968, -34.6115231 ] } },
{ "type": "Feature", "properties": { "id": 63.0, "nombre": "063 - Reconquista", "direccion": "Reconquista 76", "lat": -34.5987657, "long": -58.3728605, "RADIO_ID": "1_7_12" }, "geometry": { "type": "Point", "coordinates": [ -58.3728605, -34.5987657 ] } },
{ "type": "Feature", "properties": { "id": 255.0, "nombre": "374 - Puan", "direccion": "Yerbal 1290", "lat": -34.6221889, "long": -58.44855, "RADIO_ID": "6_12_3" }, "geometry": { "type": "Point", "coordinates": [ -58.44855, -34.6221889 ] } },
{ "type": "Feature", "properties": { "id": 427.0, "nombre": "397 - PLAZA MATHEU", "direccion": "Hernandarias y Araoz De Lamadrid, Gregorio, Gral.", "lat": -34.64072, "long": -58.367461, "RADIO_ID": "4_21_1" }, "geometry": { "type": "Point", "coordinates": [ -58.367461, -34.64072 ] } },
{ "type": "Feature", "properties": { "id": 389.0, "nombre": "286 - OEA", "direccion": "Barco Centenera Del 741", "lat": -34.62795, "long": -58.44024, "RADIO_ID": "6_16_8" }, "geometry": { "type": "Point", "coordinates": [ -58.44024, -34.62795 ] } },
{ "type": "Feature", "properties": { "id": 291.0, "nombre": "244 - UADE", "direccion": "Lima 750", "lat": -34.616985, "long": -58.381621, "RADIO_ID": "1_19_5" }, "geometry": { "type": "Point", "coordinates": [ -58.381621, -34.616985 ] } },
{ "type": "Feature", "properties": { "id": 29.0, "nombre": "029 - Parque Centenario", "direccion": "Patricias Argentinas Av. y Estivao", "lat": -34.6079414, "long": -58.4335573, "RADIO_ID": "6_7_6" }, "geometry": { "type": "Point", "coordinates": [ -58.4335573, -34.6079414 ] } },
{ "type": "Feature", "properties": { "id": 120.0, "nombre": "120 - HOSPITAL RAMOS MEJIA", "direccion": "Agrelo 3084", "lat": -34.617509, "long": -58.4092876, "RADIO_ID": "3_17_5" }, "geometry": { "type": "Point", "coordinates": [ -58.4092876, -34.617509 ] } },
{ "type": "Feature", "properties": { "id": 180.0, "nombre": "180 - CASTRO Y MEXICO", "direccion": "Castro 680", "lat": -34.619775, "long": -58.420492, "RADIO_ID": "5_17_8" }, "geometry": { "type": "Point", "coordinates": [ -58.420492, -34.619775 ] } },
{ "type": "Feature", "properties": { "id": 188.0, "nombre": "373 - Jorgelina De Simone", "direccion": "Cochabamba 1755", "lat": -34.623923, "long": -58.3904814, "RADIO_ID": "1_28_1" }, "geometry": { "type": "Point", "coordinates": [ -58.3904814, -34.623923 ] } },
{ "type": "Feature", "properties": { "id": 263.0, "nombre": "270 - PLAZA DEL ANGEL GRIS", "direccion": "Calcena y Avellaneda Av.", "lat": -34.6217948, "long": -58.4575279, "RADIO_ID": "7_4_10" }, "geometry": { "type": "Point", "coordinates": [ -58.4575279, -34.6217948 ] } },
{ "type": "Feature", "properties": { "id": 25.0, "nombre": "025 - Plaza Guemes", "direccion": "Salguero, Jeronimo y Mansilla, Lucio Norberto, General", "lat": -34.5894269, "long": -58.4161178, "RADIO_ID": "14_25_3" }, "geometry": { "type": "Point", "coordinates": [ -58.4161178, -34.5894269 ] } },
{ "type": "Feature", "properties": { "id": 194.0, "nombre": "194 - PERÓN Y ACUÑA DE FIGUEROA", "direccion": "Peron, Juan Domingo, Tte. General 3997", "lat": -34.6060758, "long": -58.4224635, "RADIO_ID": "5_7_6" }, "geometry": { "type": "Point", "coordinates": [ -58.4224635, -34.6060758 ] } },
{ "type": "Feature", "properties": { "id": 399.0, "nombre": "312 - Parque Chacabuco  I", "direccion": "Peron, Eva Av. y Achaval", "lat": -34.6340414, "long": -58.446273, "RADIO_ID": "7_21_6" }, "geometry": { "type": "Point", "coordinates": [ -58.446273, -34.6340414 ] } },
{ "type": "Feature", "properties": { "id": 153.0, "nombre": "153 - JUAN MANUEL DE BLANES", "direccion": "Blanes, Juan Manuel 383", "lat": -34.6307765, "long": -58.3620701, "RADIO_ID": "4_16_8" }, "geometry": { "type": "Point", "coordinates": [ -58.3620701, -34.6307765 ] } },
{ "type": "Feature", "properties": { "id": 69.0, "nombre": "069 - Ecuador", "direccion": "Ecuador 1226", "lat": -34.5961006, "long": -58.4046092, "RADIO_ID": "2_19_2" }, "geometry": { "type": "Point", "coordinates": [ -58.4046092, -34.5961006 ] } },
{ "type": "Feature", "properties": { "id": 308.0, "nombre": "251 - Solar de la Abadía", "direccion": "Maure 1819", "lat": -34.567639, "long": -58.436847, "RADIO_ID": "14_3_2" }, "geometry": { "type": "Point", "coordinates": [ -58.436847, -34.567639 ] } },
{ "type": "Feature", "properties": { "id": 435.0, "nombre": "227 -Club Ciudad de Buenos Aires", "direccion": "Sanchez, Miguel B. Av. y Del Libertador Av.", "lat": -34.5445971, "long": -58.4595541, "RADIO_ID": "13_3_2" }, "geometry": { "type": "Point", "coordinates": [ -58.4595541, -34.5445971 ] } },
{ "type": "Feature", "properties": { "id": 173.0, "nombre": "173 - PLAZA CECILIA GRIERSON", "direccion": "San Juan Av. 632", "lat": -34.6222964, "long": -58.3751607, "RADIO_ID": "1_26_4" }, "geometry": { "type": "Point", "coordinates": [ -58.3751607, -34.6222964 ] } },
{ "type": "Feature", "properties": { "id": 301.0, "nombre": "309 - HOMERO MANZI", "direccion": "Barco Centenera Del 2292", "lat": -34.644841, "long": -58.431785, "RADIO_ID": "7_20_12" }, "geometry": { "type": "Point", "coordinates": [ -58.431785, -34.644841 ] } },
{ "type": "Feature", "properties": { "id": 182.0, "nombre": "182 - RAVIGNANI Y GUATEMALA", "direccion": "Ravignani, Emilio, Dr. 2185", "lat": -34.5780479, "long": -58.4352466, "RADIO_ID": "14_6_4" }, "geometry": { "type": "Point", "coordinates": [ -58.4352466, -34.5780479 ] } },
{ "type": "Feature", "properties": { "id": 49.0, "nombre": "049 - 33 Orientales", "direccion": "Constitucion y Treinta y Tres Orientales", "lat": -34.6290527, "long": -58.422611, "RADIO_ID": "5_21_9" }, "geometry": { "type": "Point", "coordinates": [ -58.422611, -34.6290527 ] } },
{ "type": "Feature", "properties": { "id": 84.0, "nombre": "084 - Lavalle", "direccion": "Ayacucho 595", "lat": -34.6023203, "long": -58.3955144, "RADIO_ID": "3_5_4" }, "geometry": { "type": "Point", "coordinates": [ -58.3955144, -34.6023203 ] } },
{ "type": "Feature", "properties": { "id": 134.0, "nombre": "134 - DON BOSCO", "direccion": "Don Bosco 3490", "lat": -34.6118013, "long": -58.4150532, "RADIO_ID": "5_15_2" }, "geometry": { "type": "Point", "coordinates": [ -58.4150532, -34.6118013 ] } },
{ "type": "Feature", "properties": { "id": 273.0, "nombre": "223 - GAINZA", "direccion": "Gainza, Martin De, Gral. 494", "lat": -34.61668, "long": -58.4466674, "RADIO_ID": "6_11_3" }, "geometry": { "type": "Point", "coordinates": [ -58.4466674, -34.61668 ] } },
{ "type": "Feature", "properties": { "id": 21.0, "nombre": "021 - Parque Patricios", "direccion": "Iguazu y Uspallata", "lat": -34.6396832, "long": -58.4062115, "RADIO_ID": "4_5_7" }, "geometry": { "type": "Point", "coordinates": [ -58.4062115, -34.6396832 ] } },
{ "type": "Feature", "properties": { "id": 281.0, "nombre": "350 - Plaza Irlanda", "direccion": "Gaona Av. 2200", "lat": -34.6138773, "long": -58.4583742, "RADIO_ID": "6_1_10" }, "geometry": { "type": "Point", "coordinates": [ -58.4583742, -34.6138773 ] } },
{ "type": "Feature", "properties": { "id": 149.0, "nombre": "149 - LIMA", "direccion": "Mexico y Lima", "lat": -34.6153266, "long": -58.3813642, "RADIO_ID": "1_17_11" }, "geometry": { "type": "Point", "coordinates": [ -58.3813642, -34.6153266 ] } },
{ "type": "Feature", "properties": { "id": 244.0, "nombre": "266 - Plaza Alfredo Nobel", "direccion": "Hamburgo 3310", "lat": -34.5874735, "long": -58.4842469, "RADIO_ID": "15_2_10" }, "geometry": { "type": "Point", "coordinates": [ -58.4842469, -34.5874735 ] } },
{ "type": "Feature", "properties": { "id": 112.0, "nombre": "112 - 9 de Julio", "direccion": "Irigoyen, Bernardo De 320", "lat": -34.612075, "long": -58.380384, "RADIO_ID": "1_15_3" }, "geometry": { "type": "Point", "coordinates": [ -58.380384, -34.612075 ] } },
{ "type": "Feature", "properties": { "id": 168.0, "nombre": "168 - Estados Unidos", "direccion": "Estados Unidos y Lima", "lat": -34.6186217, "long": -58.3812271, "RADIO_ID": "1_21_2" }, "geometry": { "type": "Point", "coordinates": [ -58.3812271, -34.6186217 ] } },
{ "type": "Feature", "properties": { "id": 154.0, "nombre": "154 - GALLO", "direccion": "Gallo 789", "lat": -34.6005484, "long": -58.4122849, "RADIO_ID": "5_2_6" }, "geometry": { "type": "Point", "coordinates": [ -58.4122849, -34.6005484 ] } },
{ "type": "Feature", "properties": { "id": 83.0, "nombre": "083 - Paraná", "direccion": "Lavalle 1590", "lat": -34.603269, "long": -58.3893728, "RADIO_ID": "1_10_10" }, "geometry": { "type": "Point", "coordinates": [ -58.3893728, -34.603269 ] } },
{ "type": "Feature", "properties": { "id": 166.0, "nombre": "166 - Cementerio de Recoleta", "direccion": "Lopez, Vicente 2000", "lat": -34.5891897, "long": -58.3932507, "RADIO_ID": "2_3_3" }, "geometry": { "type": "Point", "coordinates": [ -58.3932507, -34.589189700000013 ] } },
{ "type": "Feature", "properties": { "id": 5.0, "nombre": "005 - Plaza Italia", "direccion": "Sarmiento Av. 2601", "lat": -34.5805497, "long": -58.4209542, "RADIO_ID": "14_11_12" }, "geometry": { "type": "Point", "coordinates": [ -58.4209542, -34.580549700000013 ] } },
{ "type": "Feature", "properties": { "id": 186.0, "nombre": "186 - MANZANA 66", "direccion": "Moreno 2875", "lat": -34.6136356, "long": -58.4064415, "RADIO_ID": "3_14_2" }, "geometry": { "type": "Point", "coordinates": [ -58.4064415, -34.6136356 ] } },
{ "type": "Feature", "properties": { "id": 205.0, "nombre": "125 - F.J.Santamaria de Oro", "direccion": "Fray Justo Santamaria De Oro y Guatemala", "lat": -34.5832733, "long": -58.4279562, "RADIO_ID": "14_13_2" }, "geometry": { "type": "Point", "coordinates": [ -58.4279562, -34.5832733 ] } },
{ "type": "Feature", "properties": { "id": 443.0, "nombre": "081 -Balcarce", "direccion": "Balcarce y Chile Av.", "lat": -34.6157533, "long": -58.3706184, "RADIO_ID": "1_14_10" }, "geometry": { "type": "Point", "coordinates": [ -58.3706184, -34.6157533 ] } },
{ "type": "Feature", "properties": { "id": 227.0, "nombre": "188 - Aranguren", "direccion": "Aranguren, Juan F., Dr. 137", "lat": -34.6105021, "long": -58.4327935, "RADIO_ID": "6_7_9" }, "geometry": { "type": "Point", "coordinates": [ -58.4327935, -34.6105021 ] } },
{ "type": "Feature", "properties": { "id": 213.0, "nombre": "136 - Acevedo", "direccion": "Acevedo 220", "lat": -34.5995649, "long": -58.4425362, "RADIO_ID": "15_14_5" }, "geometry": { "type": "Point", "coordinates": [ -58.4425362, -34.5995649 ] } },
{ "type": "Feature", "properties": { "id": 323.0, "nombre": "240 - ECHEVERRIA", "direccion": "Vidal 1981", "lat": -34.565275, "long": -58.459401, "RADIO_ID": "13_15_6" }, "geometry": { "type": "Point", "coordinates": [ -58.459401, -34.565275 ] } },
{ "type": "Feature", "properties": { "id": 146.0, "nombre": "146 - Hospital Francés", "direccion": "Calvo, Carlos 3024", "lat": -34.6221118, "long": -58.4078419, "RADIO_ID": "3_25_5" }, "geometry": { "type": "Point", "coordinates": [ -58.4078419, -34.6221118 ] } },
{ "type": "Feature", "properties": { "id": 242.0, "nombre": "103 - MALBA", "direccion": "San Martin De Tours 3051", "lat": -34.5771741, "long": -58.4032162, "RADIO_ID": "14_31_8" }, "geometry": { "type": "Point", "coordinates": [ -58.4032162, -34.5771741 ] } },
{ "type": "Feature", "properties": { "id": 9.0, "nombre": "009 - Parque Las Heras", "direccion": "Diaz, Cnel. Av. 2300", "lat": -34.585443, "long": -58.407741, "RADIO_ID": "14_29_9" }, "geometry": { "type": "Point", "coordinates": [ -58.407741, -34.585443 ] } },
{ "type": "Feature", "properties": { "id": 91.0, "nombre": "091 - Pasco", "direccion": "Pasco 708", "lat": -34.6174482, "long": -58.397602, "RADIO_ID": "3_19_7" }, "geometry": { "type": "Point", "coordinates": [ -58.397602, -34.6174482 ] } },
{ "type": "Feature", "properties": { "id": 196.0, "nombre": "196 - HOSPITAL ARGERICH", "direccion": "Pi y Margall 750", "lat": -34.6275351, "long": -58.3657211, "RADIO_ID": "4_16_1" }, "geometry": { "type": "Point", "coordinates": [ -58.3657211, -34.6275351 ] } },
{ "type": "Feature", "properties": { "id": 290.0, "nombre": "224 - FERROCARRIL OESTE", "direccion": "Garcia Lorca, Federico 280", "lat": -34.6186003, "long": -58.4456027, "RADIO_ID": "6_11_5" }, "geometry": { "type": "Point", "coordinates": [ -58.4456027, -34.6186003 ] } },
{ "type": "Feature", "properties": { "id": 231.0, "nombre": "384 - PLAZA BENITO NAZAR", "direccion": "Virasoro, Valentin y Figueroa, D. Apolinario, Coronel", "lat": -34.6051305, "long": -58.4458398, "RADIO_ID": "15_17_5" }, "geometry": { "type": "Point", "coordinates": [ -58.4458398, -34.6051305 ] } },
{ "type": "Feature", "properties": { "id": 217.0, "nombre": "198 - HOSPITAL SARDÁ", "direccion": "Castillo, Catulo y Dean Funes", "lat": -34.6342818, "long": -58.4042123, "RADIO_ID": "4_5_4" }, "geometry": { "type": "Point", "coordinates": [ -58.404212300000012, -34.6342818 ] } },
{ "type": "Feature", "properties": { "id": 76.0, "nombre": "076 - Ayacucho", "direccion": "Ayacucho y Peron, Juan Domingo, Tte. General", "lat": -34.6074084, "long": -58.3950548, "RADIO_ID": "3_7_7" }, "geometry": { "type": "Point", "coordinates": [ -58.3950548, -34.6074084 ] } },
{ "type": "Feature", "properties": { "id": 6.0, "nombre": "006 - Parque Lezama", "direccion": "Garcia, Martin Av. 295", "lat": -34.628526, "long": -58.369758, "RADIO_ID": "1_25_11" }, "geometry": { "type": "Point", "coordinates": [ -58.369758, -34.628526 ] } },
{ "type": "Feature", "properties": { "id": 425.0, "nombre": "394 - Av. La Plata", "direccion": "Arbeletche, Anibal P. 804", "lat": -34.6440763, "long": -58.422091, "RADIO_ID": "4_3_10" }, "geometry": { "type": "Point", "coordinates": [ -58.422091, -34.6440763 ] } },
{ "type": "Feature", "properties": { "id": 199.0, "nombre": "199 - ESTADOS UNIDOS Y BOEDO", "direccion": "Estados Unidos 3568", "lat": -34.6222601, "long": -58.4160137, "RADIO_ID": "5_19_3" }, "geometry": { "type": "Point", "coordinates": [ -58.4160137, -34.6222601 ] } },
{ "type": "Feature", "properties": { "id": 87.0, "nombre": "087 - Guayaquil", "direccion": "Guayaquil y Doblas", "lat": -34.619845, "long": -58.4314942, "RADIO_ID": "6_19_2" }, "geometry": { "type": "Point", "coordinates": [ -58.4314942, -34.619845 ] } },
{ "type": "Feature", "properties": { "id": 220.0, "nombre": "097 - Avelino Diaz", "direccion": "Diaz, Avelino y Doblas", "lat": -34.6354717, "long": -58.4279173, "RADIO_ID": "7_24_5" }, "geometry": { "type": "Point", "coordinates": [ -58.4279173, -34.6354717 ] } },
{ "type": "Feature", "properties": { "id": 167.0, "nombre": "275 - PLAZA 24 DE SEPTIEMBRE", "direccion": "San Martin Av. 1355", "lat": -34.6070594, "long": -58.4485709, "RADIO_ID": "15_16_10" }, "geometry": { "type": "Point", "coordinates": [ -58.4485709, -34.6070594 ] } },
{ "type": "Feature", "properties": { "id": 155.0, "nombre": "155 - Parque José Evaristo Uriburu", "direccion": "Almafuerte Av. 300", "lat": -34.6409617, "long": -58.4125606, "RADIO_ID": "4_4_3" }, "geometry": { "type": "Point", "coordinates": [ -58.4125606, -34.6409617 ] } },
{ "type": "Feature", "properties": { "id": 372.0, "nombre": "322 - MARTÍ Y DIRECTORIO", "direccion": "Marti, Jose 404", "lat": -34.636406, "long": -58.470136, "RADIO_ID": "7_8_5" }, "geometry": { "type": "Point", "coordinates": [ -58.470136, -34.636406 ] } },
{ "type": "Feature", "properties": { "id": 73.0, "nombre": "073 - Ruy Díaz de Guzmán", "direccion": "Garcia, Martin Av. y Ruy Diaz De Guzman", "lat": -34.6306814, "long": -58.3718235, "RADIO_ID": "4_14_5" }, "geometry": { "type": "Point", "coordinates": [ -58.3718235, -34.6306814 ] } },
{ "type": "Feature", "properties": { "id": 122.0, "nombre": "122 - COSTA RICA", "direccion": "Costa Rica 4090", "lat": -34.5916569, "long": -58.4204199, "RADIO_ID": "14_22_4" }, "geometry": { "type": "Point", "coordinates": [ -58.4204199, -34.5916569 ] } },
{ "type": "Feature", "properties": { "id": 292.0, "nombre": "355 - PLAZA RICARDO LLERAS", "direccion": "Samperio, Manuel J. y Herrera", "lat": -34.634796, "long": -58.378109, "RADIO_ID": "4_13_6" }, "geometry": { "type": "Point", "coordinates": [ -58.378109, -34.634796 ] } },
{ "type": "Feature", "properties": { "id": 238.0, "nombre": "217 - Cachimayo", "direccion": "Cachimayo 1489", "lat": -34.6365814, "long": -58.4367011, "RADIO_ID": "7_20_1" }, "geometry": { "type": "Point", "coordinates": [ -58.4367011, -34.6365814 ] } },
{ "type": "Feature", "properties": { "id": 101.0, "nombre": "101 - Fitz Roy", "direccion": "Fitz Roy 1092", "lat": -34.5891857, "long": -58.4424397, "RADIO_ID": "15_11_7" }, "geometry": { "type": "Point", "coordinates": [ -58.4424397, -34.5891857 ] } },
{ "type": "Feature", "properties": { "id": 318.0, "nombre": "285 - ESPINOSA", "direccion": "Espinosa 1785", "lat": -34.603935, "long": -58.45732, "RADIO_ID": "15_15_10" }, "geometry": { "type": "Point", "coordinates": [ -58.45732, -34.603935 ] } },
{ "type": "Feature", "properties": { "id": 329.0, "nombre": "100 - Plaza Gurruchaga", "direccion": "Gurruchaga 1078", "lat": -34.5931053, "long": -58.4351681, "RADIO_ID": "15_13_1" }, "geometry": { "type": "Point", "coordinates": [ -58.4351681, -34.5931053 ] } },
{ "type": "Feature", "properties": { "id": 12.0, "nombre": "012 - Plaza Vicente Lopez", "direccion": "Parana y Juncal", "lat": -34.5927096, "long": -58.388807, "RADIO_ID": "2_5_9" }, "geometry": { "type": "Point", "coordinates": [ -58.388807, -34.5927096 ] } },
{ "type": "Feature", "properties": { "id": 347.0, "nombre": "230 - Parque Las Heras II", "direccion": "Pacheco De Melo, Jose Andres 3120", "lat": -34.5834356, "long": -58.4065391, "RADIO_ID": "14_29_5" }, "geometry": { "type": "Point", "coordinates": [ -58.4065391, -34.5834356 ] } },
{ "type": "Feature", "properties": { "id": 77.0, "nombre": "077 - SARANDI", "direccion": "Sarandi 176", "lat": -34.6116273, "long": -58.3947367, "RADIO_ID": "3_12_8" }, "geometry": { "type": "Point", "coordinates": [ -58.39473670000001, -34.6116273 ] } },
{ "type": "Feature", "properties": { "id": 285.0, "nombre": "400 - Reserva Ecologica", "direccion": "Achaval Rodriguez, T., Dr. Av. 1520", "lat": -34.6172122, "long": -58.3561752, "RADIO_ID": "1_13_10" }, "geometry": { "type": "Point", "coordinates": [ -58.3561752, -34.6172122 ] } },
{ "type": "Feature", "properties": { "id": 374.0, "nombre": "367 - Mariano Castex", "direccion": "Alvarez, Crisostomo 2873", "lat": -34.645764, "long": -58.4573968, "RADIO_ID": "7_15_5" }, "geometry": { "type": "Point", "coordinates": [ -58.4573968, -34.645764 ] } },
{ "type": "Feature", "properties": { "id": 206.0, "nombre": "159 - Fitz Roy & Gorriti", "direccion": "Fitz Roy y Gorriti", "lat": -34.5849119, "long": -58.4372524, "RADIO_ID": "14_7_8" }, "geometry": { "type": "Point", "coordinates": [ -58.4372524, -34.5849119 ] } },
{ "type": "Feature", "properties": { "id": 270.0, "nombre": "370 - Beauchef", "direccion": "Beauchef 1995", "lat": -34.640114, "long": -58.43026, "RADIO_ID": "7_24_9" }, "geometry": { "type": "Point", "coordinates": [ -58.43026, -34.640114 ] } },
{ "type": "Feature", "properties": { "id": 265.0, "nombre": "361 - Plaza Don Segundo Sombra", "direccion": "Santander 2347", "lat": -34.6418833, "long": -58.450658, "RADIO_ID": "7_16_6" }, "geometry": { "type": "Point", "coordinates": [ -58.450658, -34.6418833 ] } },
{ "type": "Feature", "properties": { "id": 286.0, "nombre": "284 - BONIFACIO Y CARABOBO", "direccion": "Bonifacio, Jose 1913", "lat": -34.6304712, "long": -58.4551112, "RADIO_ID": "7_10_5" }, "geometry": { "type": "Point", "coordinates": [ -58.455111200000012, -34.6304712 ] } },
{ "type": "Feature", "properties": { "id": 128.0, "nombre": "128 - PARQUE DEL BAJO", "direccion": "Madero, Eduardo Av. y Peron, Juan Domingo, Tte. General", "lat": -34.6041138, "long": -58.3689118, "RADIO_ID": "1_12_11" }, "geometry": { "type": "Point", "coordinates": [ -58.3689118, -34.6041138 ] } },
{ "type": "Feature", "properties": { "id": 8.0, "nombre": "008 - Congreso", "direccion": "Cevallos, Virrey y Yrigoyen, Hipolito Av.", "lat": -34.6094218, "long": -58.3893364, "RADIO_ID": "1_11_13" }, "geometry": { "type": "Point", "coordinates": [ -58.3893364, -34.6094218 ] } },
{ "type": "Feature", "properties": { "id": 212.0, "nombre": "129 - Velasco", "direccion": "Ramirez De Velasco, Juan 285", "lat": -34.600164, "long": -58.434983, "RADIO_ID": "15_19_2" }, "geometry": { "type": "Point", "coordinates": [ -58.434983, -34.600164 ] } },
{ "type": "Feature", "properties": { "id": 429.0, "nombre": "201 - PEPIRI", "direccion": "Garcia, Juan Agustin 3074", "lat": -34.6115826, "long": -58.484692, "RADIO_ID": "11_15_10" }, "geometry": { "type": "Point", "coordinates": [ -58.484692, -34.6115826 ] } },
{ "type": "Feature", "properties": { "id": 302.0, "nombre": "340 - PLAZA NUEVA POMPEYA", "direccion": "Traful 3800", "lat": -34.651955, "long": -58.415423, "RADIO_ID": "4_2_7" }, "geometry": { "type": "Point", "coordinates": [ -58.415423, -34.651955 ] } },
{ "type": "Feature", "properties": { "id": 102.0, "nombre": "102 - ROSETI", "direccion": "Roseti 50", "lat": -34.5864287, "long": -58.4458199, "RADIO_ID": "15_11_4" }, "geometry": { "type": "Point", "coordinates": [ -58.4458199, -34.5864287 ] } },
{ "type": "Feature", "properties": { "id": 197.0, "nombre": "197 - Quintino Bocayuva", "direccion": "Quintino Bocayuva y Don Bosco", "lat": -34.613449, "long": -58.423397, "RADIO_ID": "5_13_3" }, "geometry": { "type": "Point", "coordinates": [ -58.423397, -34.613449 ] } },
{ "type": "Feature", "properties": { "id": 82.0, "nombre": "082 - HOSPITAL ITALIANO", "direccion": "Rawson 394", "lat": -34.6078917, "long": -58.4263947, "RADIO_ID": "5_7_8" }, "geometry": { "type": "Point", "coordinates": [ -58.4263947, -34.6078917 ] } },
{ "type": "Feature", "properties": { "id": 85.0, "nombre": "085 - AGUERO", "direccion": "Aguero y Mansilla, Lucio Norberto, General", "lat": -34.5948057, "long": -58.4091784, "RADIO_ID": "2_20_1" }, "geometry": { "type": "Point", "coordinates": [ -58.4091784, -34.5948057 ] } },
{ "type": "Feature", "properties": { "id": 314.0, "nombre": "212 - SOR JUANA", "direccion": "Galicia 1630", "lat": -34.61047, "long": -58.4602399, "RADIO_ID": "6_1_1" }, "geometry": { "type": "Point", "coordinates": [ -58.4602399, -34.61047 ] } },
{ "type": "Feature", "properties": { "id": 226.0, "nombre": "139 - Virrey Liniers", "direccion": "Salcedo 3408", "lat": -34.633335, "long": -58.4132263, "RADIO_ID": "5_20_7" }, "geometry": { "type": "Point", "coordinates": [ -58.4132263, -34.633335 ] } },
{ "type": "Feature", "properties": { "id": 241.0, "nombre": "348 - Villa del Parque", "direccion": "Gutierrez, Ricardo 3105", "lat": -34.600874, "long": -58.494123, "RADIO_ID": "11_9_11" }, "geometry": { "type": "Point", "coordinates": [ -58.494123, -34.600874 ] } },
{ "type": "Feature", "properties": { "id": 26.0, "nombre": "026 - JUANA MANSO I", "direccion": "Manso Juana y De La Barra,  Emma", "lat": -34.6004606, "long": -58.3636593, "RADIO_ID": "1_13_2" }, "geometry": { "type": "Point", "coordinates": [ -58.3636593, -34.6004606 ] } },
{ "type": "Feature", "properties": { "id": 110.0, "nombre": "110 - Guardia Vieja", "direccion": "Guardia Vieja 3500", "lat": -34.601738, "long": -58.415434, "RADIO_ID": "5_2_10" }, "geometry": { "type": "Point", "coordinates": [ -58.415434, -34.601738 ] } },
{ "type": "Feature", "properties": { "id": 363.0, "nombre": "354 - Plaza Tupac Amaru", "direccion": "Primera Junta 3101", "lat": -34.642052, "long": -58.46205, "RADIO_ID": "7_14_10" }, "geometry": { "type": "Point", "coordinates": [ -58.46205, -34.642052 ] } },
{ "type": "Feature", "properties": { "id": 161.0, "nombre": "161 - Humahuaca", "direccion": "Humahuaca 3912", "lat": -34.6020779, "long": -58.4196761, "RADIO_ID": "5_4_2" }, "geometry": { "type": "Point", "coordinates": [ -58.4196761, -34.6020779 ] } },
{ "type": "Feature", "properties": { "id": 288.0, "nombre": "333 - MIRO", "direccion": "Miro 1684", "lat": -34.6404886, "long": -58.4429517, "RADIO_ID": "7_20_4" }, "geometry": { "type": "Point", "coordinates": [ -58.4429517, -34.6404886 ] } },
{ "type": "Feature", "properties": { "id": 211.0, "nombre": "195 - Plaza Garay", "direccion": "Garay, Juan De Av. y Saenz Peña, Luis, Pres.", "lat": -34.6266267, "long": -58.3879696, "RADIO_ID": "1_28_3" }, "geometry": { "type": "Point", "coordinates": [ -58.3879696, -34.6266267 ] } },
{ "type": "Feature", "properties": { "id": 71.0, "nombre": "071 - CERRITO", "direccion": "Saenz Peña, Roque, Pres. Diagonal Norte Av. y Cerrito", "lat": -34.6026673, "long": -58.3833559, "RADIO_ID": "1_9_3" }, "geometry": { "type": "Point", "coordinates": [ -58.3833559, -34.6026673 ] } },
{ "type": "Feature", "properties": { "id": 185.0, "nombre": "185 - AV. PAVÓN Y 33 ORIENTALES", "direccion": "Treinta y Tres Orientales 1400", "lat": -34.63133, "long": -58.42177, "RADIO_ID": "5_21_8" }, "geometry": { "type": "Point", "coordinates": [ -58.42177, -34.63133 ] } },
{ "type": "Feature", "properties": { "id": 13.0, "nombre": "013 - ONCE", "direccion": "Pueyrredon Av. y Rivadavia Av.", "lat": -34.61009, "long": -58.406, "RADIO_ID": "3_9_10" }, "geometry": { "type": "Point", "coordinates": [ -58.406, -34.61009 ] } },
{ "type": "Feature", "properties": { "id": 384.0, "nombre": "267 - Plaza 25 De Agosto", "direccion": "14 De Julio 1194", "lat": -34.579734, "long": -58.4618523, "RADIO_ID": "15_3_12" }, "geometry": { "type": "Point", "coordinates": [ -58.4618523, -34.579734 ] } },
{ "type": "Feature", "properties": { "id": 307.0, "nombre": "358 - Plaza Almirante Brown", "direccion": "Irala y California", "lat": -34.6451626, "long": -58.365323, "RADIO_ID": "4_21_11" }, "geometry": { "type": "Point", "coordinates": [ -58.365323, -34.6451626 ] } },
{ "type": "Feature", "properties": { "id": 340.0, "nombre": "214 - Flores", "direccion": "Bogota 2620", "lat": -34.626242, "long": -58.467329, "RADIO_ID": "7_7_3" }, "geometry": { "type": "Point", "coordinates": [ -58.467329, -34.626242 ] } },
{ "type": "Feature", "properties": { "id": 124.0, "nombre": "124 - UGARTECHE", "direccion": "Ugarteche 3050", "lat": -34.580538, "long": -58.411965, "RADIO_ID": "14_17_4" }, "geometry": { "type": "Point", "coordinates": [ -58.411965, -34.580538 ] } },
{ "type": "Feature", "properties": { "id": 121.0, "nombre": "121 - YATAY", "direccion": "Yatay 925", "lat": -34.6011732, "long": -58.4285093, "RADIO_ID": "5_5_4" }, "geometry": { "type": "Point", "coordinates": [ -58.4285093, -34.6011732 ] } },
{ "type": "Feature", "properties": { "id": 280.0, "nombre": "222 - SIMON BOLIVAR", "direccion": "Fernandez Moreno, Baldomero 1701", "lat": -34.6333113, "long": -58.4494755, "RADIO_ID": "7_12_3" }, "geometry": { "type": "Point", "coordinates": [ -58.4494755, -34.6333113 ] } },
{ "type": "Feature", "properties": { "id": 38.0, "nombre": "038 - Plaza Libertad", "direccion": "Cerrito 990", "lat": -34.5970497, "long": -58.3828403, "RADIO_ID": "1_8_3" }, "geometry": { "type": "Point", "coordinates": [ -58.3828403, -34.5970497 ] } },
{ "type": "Feature", "properties": { "id": 54.0, "nombre": "054 - Acuña de Figueroa", "direccion": "Lavalle y Acuña De Figueroa, Francisco", "lat": -34.5981183, "long": -58.4219844, "RADIO_ID": "14_22_9" }, "geometry": { "type": "Point", "coordinates": [ -58.4219844, -34.5981183 ] } },
{ "type": "Feature", "properties": { "id": 253.0, "nombre": "383 - Boedo & Venezuela", "direccion": "Boedo Av. y Republica Bolivariana De Venezuela", "lat": -34.6172808, "long": -58.4167728, "RADIO_ID": "5_16_7" }, "geometry": { "type": "Point", "coordinates": [ -58.4167728, -34.6172808 ] } },
{ "type": "Feature", "properties": { "id": 162.0, "nombre": "162 - LARREA Y BARTOLOMÉ MITRE", "direccion": "Larrea 80", "lat": -34.608985, "long": -58.401924, "RADIO_ID": "3_10_3" }, "geometry": { "type": "Point", "coordinates": [ -58.401924, -34.608985 ] } },
{ "type": "Feature", "properties": { "id": 17.0, "nombre": "017 - Plaza Almagro", "direccion": "Bulnes 441", "lat": -34.6064101, "long": -58.4187306, "RADIO_ID": "5_9_5" }, "geometry": { "type": "Point", "coordinates": [ -58.4187306, -34.6064101 ] } },
{ "type": "Feature", "properties": { "id": 411.0, "nombre": "368 - Ensenada", "direccion": "Ensenada 413", "lat": -34.6385808, "long": -58.4769856, "RADIO_ID": "9_11_2" }, "geometry": { "type": "Point", "coordinates": [ -58.4769856, -34.6385808 ] } },
{ "type": "Feature", "properties": { "id": 86.0, "nombre": "086 - SAAVEDRA", "direccion": "Saavedra 1019", "lat": -34.6212681, "long": -58.4016808, "RADIO_ID": "3_24_2" }, "geometry": { "type": "Point", "coordinates": [ -58.4016808, -34.6212681 ] } },
{ "type": "Feature", "properties": { "id": 144.0, "nombre": "144 - PUEYRREDÓN", "direccion": "Boulogne Sur Mer 684", "lat": -34.6018744, "long": -58.4060944, "RADIO_ID": "3_2_5" }, "geometry": { "type": "Point", "coordinates": [ -58.4060944, -34.6018744 ] } },
{ "type": "Feature", "properties": { "id": 298.0, "nombre": "271 - Plazoleta 11 de Noviembre", "direccion": "Varela 401", "lat": -34.634443, "long": -58.463437, "RADIO_ID": "7_9_4" }, "geometry": { "type": "Point", "coordinates": [ -58.463437, -34.634443 ] } },
{ "type": "Feature", "properties": { "id": 201.0, "nombre": "175 - Esmeralda y Corrientes", "direccion": "Esmeralda y Corrientes Av.", "lat": -34.6034449, "long": -58.378167, "RADIO_ID": "1_9_17" }, "geometry": { "type": "Point", "coordinates": [ -58.378167, -34.6034449 ] } },
{ "type": "Feature", "properties": { "id": 96.0, "nombre": "096 - Carlos Gardel", "direccion": "Guardia Vieja 3302", "lat": -34.6027814, "long": -58.4116586, "RADIO_ID": "3_1_6" }, "geometry": { "type": "Point", "coordinates": [ -58.4116586, -34.6027814 ] } },
{ "type": "Feature", "properties": { "id": 377.0, "nombre": "327 - ACUÑA DE FIGUEROA Y POTOSI", "direccion": "Acuña De Figueroa, Francisco 296", "lat": -34.607333, "long": -58.422987, "RADIO_ID": "5_7_7" }, "geometry": { "type": "Point", "coordinates": [ -58.422987, -34.607333 ] } },
{ "type": "Feature", "properties": { "id": 68.0, "nombre": "068 - Rivarola", "direccion": "Rivarola, Rodolfo, Dr. 175", "lat": -34.6065099, "long": -58.385434, "RADIO_ID": "1_12_5" }, "geometry": { "type": "Point", "coordinates": [ -58.385434, -34.6065099 ] } },
{ "type": "Feature", "properties": { "id": 126.0, "nombre": "126 - Ministerio de Justicia y Seguridad", "direccion": "Regimiento De Patricios Av. y Araoz De Lamadrid, Gregorio, Gral.", "lat": -34.6402672, "long": -58.3692243, "RADIO_ID": "4_22_2" }, "geometry": { "type": "Point", "coordinates": [ -58.3692243, -34.6402672 ] } },
{ "type": "Feature", "properties": { "id": 116.0, "nombre": "116 - HOSPITAL ALEMÁN", "direccion": "Beruti y Ecuador", "lat": -34.5921708, "long": -58.4025894, "RADIO_ID": "2_14_1" }, "geometry": { "type": "Point", "coordinates": [ -58.4025894, -34.5921708 ] } },
{ "type": "Feature", "properties": { "id": 401.0, "nombre": "314 - Ramón Falcon", "direccion": "Falcon, Ramon L.,Cnel. 3792", "lat": -34.6347618, "long": -58.4795922, "RADIO_ID": "10_19_7" }, "geometry": { "type": "Point", "coordinates": [ -58.4795922, -34.6347618 ] } },
{ "type": "Feature", "properties": { "id": 65.0, "nombre": "065 - Julián Álvarez", "direccion": "Guemes 3822", "lat": -34.5873124, "long": -58.4157873, "RADIO_ID": "14_25_1" }, "geometry": { "type": "Point", "coordinates": [ -58.415787300000012, -34.5873124 ] } },
{ "type": "Feature", "properties": { "id": 261.0, "nombre": "272 - Plaza Bruno Giordano", "direccion": "Bruno, Giordano y Neuquen", "lat": -34.616207, "long": -58.4406995, "RADIO_ID": "6_4_11" }, "geometry": { "type": "Point", "coordinates": [ -58.4406995, -34.616207 ] } },
{ "type": "Feature", "properties": { "id": 396.0, "nombre": "306 - Tres Arroyos Y Olaya", "direccion": "Tres Arroyos 327", "lat": -34.601852, "long": -58.448011, "RADIO_ID": "15_14_11" }, "geometry": { "type": "Point", "coordinates": [ -58.448011, -34.601852 ] } },
{ "type": "Feature", "properties": { "id": 184.0, "nombre": "184 - Pedro Echague", "direccion": "Echague, Pedro 1878", "lat": -34.6306129, "long": -58.3913419, "RADIO_ID": "4_7_11" }, "geometry": { "type": "Point", "coordinates": [ -58.3913419, -34.6306129 ] } },
{ "type": "Feature", "properties": { "id": 183.0, "nombre": "183 - VIRREY CEVALLOS", "direccion": "Mexico 1652", "lat": -34.6156994, "long": -58.3899728, "RADIO_ID": "1_18_5" }, "geometry": { "type": "Point", "coordinates": [ -58.3899728, -34.6156994 ] } },
{ "type": "Feature", "properties": { "id": 191.0, "nombre": "191 - Rivadavia y 9 de Julio", "direccion": "Pellegrini, Carlos y Rivadavia Av.", "lat": -34.6079305, "long": -58.3808358, "RADIO_ID": "1_12_9" }, "geometry": { "type": "Point", "coordinates": [ -58.3808358, -34.6079305 ] } },
{ "type": "Feature", "properties": { "id": 414.0, "nombre": "385 - Franklin", "direccion": "Franklin 440", "lat": -34.607731, "long": -58.4383041, "RADIO_ID": "6_5_5" }, "geometry": { "type": "Point", "coordinates": [ -58.4383041, -34.607731 ] } },
{ "type": "Feature", "properties": { "id": 417.0, "nombre": "328 - Centro Cultural San Martin", "direccion": "Sarmiento 1501", "lat": -34.6053524, "long": -58.3880338, "RADIO_ID": "1_11_3" }, "geometry": { "type": "Point", "coordinates": [ -58.3880338, -34.6053524 ] } },
{ "type": "Feature", "properties": { "id": 229.0, "nombre": "243 - PLAZOLETA CELEDONIO FLORES", "direccion": "Cordoba 6599", "lat": -34.5813811, "long": -58.4514575, "RADIO_ID": "15_10_7" }, "geometry": { "type": "Point", "coordinates": [ -58.4514575, -34.5813811 ] } },
{ "type": "Feature", "properties": { "id": 148.0, "nombre": "323 - Parque Avellaneda II", "direccion": "Directorio Av. y Olivera Av.", "lat": -34.6443615, "long": -58.4846764, "RADIO_ID": "9_10_7" }, "geometry": { "type": "Point", "coordinates": [ -58.4846764, -34.6443615 ] } },
{ "type": "Feature", "properties": { "id": 72.0, "nombre": "072 - Venezuela", "direccion": "Peru 490", "lat": -34.6135421, "long": -58.3746635, "RADIO_ID": "1_14_5" }, "geometry": { "type": "Point", "coordinates": [ -58.3746635, -34.6135421 ] } },
{ "type": "Feature", "properties": { "id": 59.0, "nombre": "018 - Independencia", "direccion": "Independencia Av. E Irigoyen, Bernardo De", "lat": -34.617771, "long": -58.3804546, "RADIO_ID": "1_15_10" }, "geometry": { "type": "Point", "coordinates": [ -58.3804546, -34.617771 ] } },
{ "type": "Feature", "properties": { "id": 27.0, "nombre": "027 - Montevideo", "direccion": "Cordoba Av. y Montevideo", "lat": -34.599068, "long": -58.3900887, "RADIO_ID": "2_7_8" }, "geometry": { "type": "Point", "coordinates": [ -58.3900887, -34.599068 ] } },
{ "type": "Feature", "properties": { "id": 52.0, "nombre": "052 - SANCHEZ DE BUSTAMANTE", "direccion": "Sanchez De Bustamante 212", "lat": -34.606682, "long": -58.414851, "RADIO_ID": "5_3_10" }, "geometry": { "type": "Point", "coordinates": [ -58.414851, -34.606682 ] } },
{ "type": "Feature", "properties": { "id": 266.0, "nombre": "379 - BERG", "direccion": "Berg, Carlos 3402", "lat": -34.6601336, "long": -58.4287202, "RADIO_ID": "8_13_6" }, "geometry": { "type": "Point", "coordinates": [ -58.4287202, -34.6601336 ] } },
{ "type": "Feature", "properties": { "id": 225.0, "nombre": "109 - Lerma", "direccion": "Lerma 175", "lat": -34.5968511, "long": -58.4295184, "RADIO_ID": "15_21_3" }, "geometry": { "type": "Point", "coordinates": [ -58.4295184, -34.5968511 ] } },
{ "type": "Feature", "properties": { "id": 378.0, "nombre": "215 - HOSPITAL ALVAREZ", "direccion": "Estado Plurinacional De Bolivia 683", "lat": -34.623123, "long": -58.468287, "RADIO_ID": "7_2_4" }, "geometry": { "type": "Point", "coordinates": [ -58.468287, -34.623123 ] } },
{ "type": "Feature", "properties": { "id": 23.0, "nombre": "023 - Suipacha", "direccion": "Suipacha y Viamonte", "lat": -34.6003095, "long": -58.3793463, "RADIO_ID": "1_9_4" }, "geometry": { "type": "Point", "coordinates": [ -58.3793463, -34.6003095 ] } },
{ "type": "Feature", "properties": { "id": 296.0, "nombre": "293 - PEDERNERA", "direccion": "Pedernera 381", "lat": -34.632961, "long": -58.462547, "RADIO_ID": "7_9_6" }, "geometry": { "type": "Point", "coordinates": [ -58.462547, -34.632961 ] } },
{ "type": "Feature", "properties": { "id": 107.0, "nombre": "107 - HOSPITAL GARRAHAN", "direccion": "Brasil y Pichincha Av.", "lat": -34.630374, "long": -58.395852, "RADIO_ID": "4_7_3" }, "geometry": { "type": "Point", "coordinates": [ -58.395852, -34.630374 ] } },
{ "type": "Feature", "properties": { "id": 320.0, "nombre": "364 - Carranza Y Gorriti", "direccion": "Carranza, Angel Justiniano 1501", "lat": -34.584058, "long": -58.440073, "RADIO_ID": "14_7_3" }, "geometry": { "type": "Point", "coordinates": [ -58.440073, -34.584058 ] } },
{ "type": "Feature", "properties": { "id": 236.0, "nombre": "254 - Plaza Rafael Hernandez", "direccion": "Vuelta De Obligado 2004", "lat": -34.5623422, "long": -58.4550484, "RADIO_ID": "13_14_6" }, "geometry": { "type": "Point", "coordinates": [ -58.4550484, -34.5623422 ] } },
{ "type": "Feature", "properties": { "id": 192.0, "nombre": "192 - Talcahuano", "direccion": "Talcahuano 990", "lat": -34.5972773, "long": -58.3855748, "RADIO_ID": "1_8_1" }, "geometry": { "type": "Point", "coordinates": [ -58.3855748, -34.5972773 ] } },
{ "type": "Feature", "properties": { "id": 80.0, "nombre": "080 - DOBLAS", "direccion": "Doblas 608", "lat": -34.624435, "long": -58.4303766, "RADIO_ID": "6_21_4" }, "geometry": { "type": "Point", "coordinates": [ -58.43037660000001, -34.624435 ] } },
{ "type": "Feature", "properties": { "id": 218.0, "nombre": "067 - Senillosa", "direccion": "Senillosa 1905", "lat": -34.638523, "long": -58.425464, "RADIO_ID": "7_24_5" }, "geometry": { "type": "Point", "coordinates": [ -58.425464, -34.638523 ] } },
{ "type": "Feature", "properties": { "id": 353.0, "nombre": "237 - Madero Office", "direccion": "Sanchez De Thompson, Mariquita 367", "lat": -34.5986779, "long": -58.3647259, "RADIO_ID": "1_1_1" }, "geometry": { "type": "Point", "coordinates": [ -58.3647259, -34.5986779 ] } },
{ "type": "Feature", "properties": { "id": 171.0, "nombre": "171 - Pasteur", "direccion": "Pasteur 519", "lat": -34.6032813, "long": -58.3997553, "RADIO_ID": "3_4_5" }, "geometry": { "type": "Point", "coordinates": [ -58.3997553, -34.6032813 ] } },
{ "type": "Feature", "properties": { "id": 169.0, "nombre": "169 - FACULTAD DE PSICOLOGIA", "direccion": "Yrigoyen, Hipolito y 24 De Noviembre", "lat": -34.611875, "long": -58.411887, "RADIO_ID": "3_16_2" }, "geometry": { "type": "Point", "coordinates": [ -58.411887, -34.611875 ] } },
{ "type": "Feature", "properties": { "id": 75.0, "nombre": "075 - Plaza Primero de Mayo", "direccion": "Pichincha 238", "lat": -34.6122976, "long": -58.3989871, "RADIO_ID": "3_12_10" }, "geometry": { "type": "Point", "coordinates": [ -58.3989871, -34.6122976 ] } },
{ "type": "Feature", "properties": { "id": 189.0, "nombre": "189 - POSADAS", "direccion": "Posadas 1350", "lat": -34.5886889, "long": -58.3852113, "RADIO_ID": "2_4_10" }, "geometry": { "type": "Point", "coordinates": [ -58.3852113, -34.5886889 ] } },
{ "type": "Feature", "properties": { "id": 342.0, "nombre": "218 - Campana", "direccion": "Campana 1523", "lat": -34.616813, "long": -58.484297, "RADIO_ID": "11_17_2" }, "geometry": { "type": "Point", "coordinates": [ -58.484297, -34.616813 ] } },
{ "type": "Feature", "properties": { "id": 156.0, "nombre": "156 - Plaza Alemania", "direccion": "Cavia 2939", "lat": -34.5775895, "long": -58.4074696, "RADIO_ID": "14_31_1" }, "geometry": { "type": "Point", "coordinates": [ -58.4074696, -34.5775895 ] } },
{ "type": "Feature", "properties": { "id": 299.0, "nombre": "221 - CULPINA", "direccion": "Culpina 121", "lat": -34.631486, "long": -58.466293, "RADIO_ID": "7_8_2" }, "geometry": { "type": "Point", "coordinates": [ -58.466293, -34.631486 ] } },
{ "type": "Feature", "properties": { "id": 131.0, "nombre": "131- HOSPITAL DE CLÍNICAS", "direccion": null, "lat": -34.5984043, "long": -58.3990158, "RADIO_ID": "2_18_4" }, "geometry": { "type": "Point", "coordinates": [ -58.3990158, -34.5984043 ] } },
{ "type": "Feature", "properties": { "id": 177.0, "nombre": "177 -PLANETARIO", "direccion": "Sarmiento Av. 3866", "lat": -34.5680151, "long": -58.41208, "RADIO_ID": "14_10_1" }, "geometry": { "type": "Point", "coordinates": [ -58.41208, -34.5680151 ] } },
{ "type": "Feature", "properties": { "id": 19.0, "nombre": "019 - PLAZA SAN MARTIN", "direccion": "Santa Fe Av. 750", "lat": -34.5956027, "long": -58.3776353, "RADIO_ID": "1_7_2" }, "geometry": { "type": "Point", "coordinates": [ -58.3776353, -34.5956027 ] } },
{ "type": "Feature", "properties": { "id": 293.0, "nombre": "294 - Bonifacio", "direccion": "Bonifacio, Jose 381", "lat": -34.6264943, "long": -58.4324405, "RADIO_ID": "6_21_9" }, "geometry": { "type": "Point", "coordinates": [ -58.432440500000013, -34.6264943 ] } },
{ "type": "Feature", "properties": { "id": 412.0, "nombre": "372 - Villa Soldati", "direccion": "Triana, Rodrigo De 3102", "lat": -34.6626285, "long": -58.4411434, "RADIO_ID": "8_14_7" }, "geometry": { "type": "Point", "coordinates": [ -58.4411434, -34.6626285 ] } },
{ "type": "Feature", "properties": { "id": 62.0, "nombre": "062 - Córdoba", "direccion": "Maipu 820", "lat": -34.5985102, "long": -58.3768501, "RADIO_ID": "1_7_10" }, "geometry": { "type": "Point", "coordinates": [ -58.376850100000013, -34.5985102 ] } },
{ "type": "Feature", "properties": { "id": 88.0, "nombre": "088 - MISIONES", "direccion": "Misiones 209", "lat": -34.612575, "long": -58.404356, "RADIO_ID": "3_15_5" }, "geometry": { "type": "Point", "coordinates": [ -58.404356, -34.612575 ] } },
{ "type": "Feature", "properties": { "id": 284.0, "nombre": "229 - RIGLOS", "direccion": "Riglos 1019", "lat": -34.6311092, "long": -58.4350943, "RADIO_ID": "7_22_6" }, "geometry": { "type": "Point", "coordinates": [ -58.4350943, -34.6311092 ] } },
{ "type": "Feature", "properties": { "id": 42.0, "nombre": "042 - Diagonal Norte", "direccion": "Saenz Peña, Roque, Pres. Diagonal Norte Av. y Suipacha", "lat": -34.604447, "long": -58.38003248, "RADIO_ID": "1_12_12" }, "geometry": { "type": "Point", "coordinates": [ -58.38003248, -34.604447 ] } },
{ "type": "Feature", "properties": { "id": 138.0, "nombre": "138 - Hospital Britanico", "direccion": "Perdriel 153", "lat": -34.6353595, "long": -58.3876724, "RADIO_ID": "4_12_3" }, "geometry": { "type": "Point", "coordinates": [ -58.3876724, -34.6353595 ] } },
{ "type": "Feature", "properties": { "id": 317.0, "nombre": "220 - GIRIBONE", "direccion": "Giribone 1101", "lat": -34.5797368, "long": -58.4578146, "RADIO_ID": "15_10_2" }, "geometry": { "type": "Point", "coordinates": [ -58.4578146, -34.5797368 ] } },
{ "type": "Feature", "properties": { "id": 328.0, "nombre": "043 - Plaza Houssay", "direccion": "Cordoba Av. y Uriburu Jose E., Pres.", "lat": -34.598549, "long": -58.397354, "RADIO_ID": "2_18_4" }, "geometry": { "type": "Point", "coordinates": [ -58.397354, -34.598549 ] } },
{ "type": "Feature", "properties": { "id": 45.0, "nombre": "045 - Uruguay", "direccion": "Uruguay Av. 561", "lat": -34.6018635, "long": -58.3866934, "RADIO_ID": "1_10_8" }, "geometry": { "type": "Point", "coordinates": [ -58.3866934, -34.6018635 ] } },
{ "type": "Feature", "properties": { "id": 41.0, "nombre": "041 - Urquiza y Rondeau", "direccion": "Urquiza, Gral. y Rondeau", "lat": -34.6364511, "long": -58.4076348, "RADIO_ID": "4_5_1" }, "geometry": { "type": "Point", "coordinates": [ -58.4076348, -34.6364511 ] } },
{ "type": "Feature", "properties": { "id": 3.0, "nombre": "003 - ADUANA", "direccion": "Moreno y Paseo Colon Av.", "lat": -34.611032, "long": -58.3682604, "RADIO_ID": "1_14_2" }, "geometry": { "type": "Point", "coordinates": [ -58.3682604, -34.611032 ] } },
{ "type": "Feature", "properties": { "id": 316.0, "nombre": "205 - SAN MARTIN", "direccion": "Cucha Cucha 1471", "lat": -34.605638, "long": -58.4533609, "RADIO_ID": "15_16_5" }, "geometry": { "type": "Point", "coordinates": [ -58.4533609, -34.605638 ] } },
{ "type": "Feature", "properties": { "id": 433.0, "nombre": "273 - Plazoleta Colombia", "direccion": "Brandsen 1619", "lat": -34.637491, "long": -58.373638, "RADIO_ID": "4_13_10" }, "geometry": { "type": "Point", "coordinates": [ -58.373638, -34.637491 ] } },
{ "type": "Feature", "properties": { "id": 327.0, "nombre": "341 - TILCARA", "direccion": "Tilcara 3318", "lat": -34.654386, "long": -58.419928, "RADIO_ID": "4_1_10" }, "geometry": { "type": "Point", "coordinates": [ -58.419928, -34.654386 ] } },
{ "type": "Feature", "properties": { "id": 310.0, "nombre": "356 - Plaza Sergio Karakachoff", "direccion": "Brandsen y Herrera", "lat": -34.63819, "long": -58.37747, "RADIO_ID": "4_13_6" }, "geometry": { "type": "Point", "coordinates": [ -58.37747, -34.63819 ] } },
{ "type": "Feature", "properties": { "id": 395.0, "nombre": "303 - Huaura", "direccion": "Huaura 1474", "lat": -34.5968038, "long": -58.4535687, "RADIO_ID": "15_9_7" }, "geometry": { "type": "Point", "coordinates": [ -58.453568700000012, -34.5968038 ] } },
{ "type": "Feature", "properties": { "id": 47.0, "nombre": "047 - Colegio Nacional de Buenos Aires", "direccion": "Bolivar 306", "lat": -34.6117408, "long": -58.3733149, "RADIO_ID": "1_14_1" }, "geometry": { "type": "Point", "coordinates": [ -58.3733149, -34.6117408 ] } },
{ "type": "Feature", "properties": { "id": 151.0, "nombre": "151 - AIME PAINÉ", "direccion": "Villaflor, Azucena y Paine, Aime", "lat": -34.6118145, "long": -58.361285, "RADIO_ID": "1_13_7" }, "geometry": { "type": "Point", "coordinates": [ -58.361285, -34.6118145 ] } },
{ "type": "Feature", "properties": { "id": 325.0, "nombre": "342 - SAENZ", "direccion": "Del Tigre 3935", "lat": -34.645252, "long": -58.416547, "RADIO_ID": "4_4_7" }, "geometry": { "type": "Point", "coordinates": [ -58.416547, -34.645252 ] } },
{ "type": "Feature", "properties": { "id": 250.0, "nombre": "366 - Plaza Diaz Velez", "direccion": "Cruz, Osvaldo Av. y San Antonio", "lat": -34.6526797, "long": -58.377215, "RADIO_ID": "4_23_10" }, "geometry": { "type": "Point", "coordinates": [ -58.377215, -34.6526797 ] } },
{ "type": "Feature", "properties": { "id": 94.0, "nombre": "094 - GÚZMAN", "direccion": "Guzman 129", "lat": -34.591511, "long": -58.449652, "RADIO_ID": "15_9_2" }, "geometry": { "type": "Point", "coordinates": [ -58.449652, -34.591511 ] } },
{ "type": "Feature", "properties": { "id": 130.0, "nombre": "130 - RETIRO II", "direccion": null, "lat": -34.5921056, "long": -58.3745419, "RADIO_ID": "1_3_21" }, "geometry": { "type": "Point", "coordinates": [ -58.3745419, -34.5921056 ] } },
{ "type": "Feature", "properties": { "id": 441.0, "nombre": "016 - Legislatura", "direccion": "Peru 169", "lat": -34.61001199, "long": -58.3749195, "RADIO_ID": "1_14_1" }, "geometry": { "type": "Point", "coordinates": [ -58.3749195, -34.61001199 ] } },
{ "type": "Feature", "properties": { "id": 28.0, "nombre": "028 - Plaza Boedo", "direccion": "Calvo, Carlos 3310", "lat": -34.6231273, "long": -58.4127377, "RADIO_ID": "5_19_6" }, "geometry": { "type": "Point", "coordinates": [ -58.4127377, -34.6231273 ] } },
{ "type": "Feature", "properties": { "id": 424.0, "nombre": "387 - Luna", "direccion": "Luna 201", "lat": -34.638584, "long": -58.399683, "RADIO_ID": "4_8_3" }, "geometry": { "type": "Point", "coordinates": [ -58.399683, -34.638584 ] } },
{ "type": "Feature", "properties": { "id": 32.0, "nombre": "032 - Catedral", "direccion": "San Martin 67", "lat": -34.6072074, "long": -58.3735984, "RADIO_ID": "1_12_11" }, "geometry": { "type": "Point", "coordinates": [ -58.3735984, -34.6072074 ] } },
{ "type": "Feature", "properties": { "id": 312.0, "nombre": "311 - CONCORDIA", "direccion": "Bogota 3396", "lat": -34.629028, "long": -58.4769111, "RADIO_ID": "10_12_5" }, "geometry": { "type": "Point", "coordinates": [ -58.4769111, -34.629028 ] } },
{ "type": "Feature", "properties": { "id": 442.0, "nombre": "048 - Perón", "direccion": "Peron, Juan Domingo, Tte. General 338", "lat": -34.6056194, "long": -58.371607, "RADIO_ID": "1_12_11" }, "geometry": { "type": "Point", "coordinates": [ -58.371607, -34.6056194 ] } },
{ "type": "Feature", "properties": { "id": 105.0, "nombre": "105 - 15 DE NOVIEMBRE", "direccion": "15 De Noviembre De 1889 2687", "lat": -34.6340844, "long": -58.4008662, "RADIO_ID": "4_6_10" }, "geometry": { "type": "Point", "coordinates": [ -58.4008662, -34.6340844 ] } },
{ "type": "Feature", "properties": { "id": 409.0, "nombre": "339 - AMANCIO ALCORTA", "direccion": "Alcorta, Amancio Av. 3805", "lat": -34.654801, "long": -58.412878, "RADIO_ID": "4_2_5" }, "geometry": { "type": "Point", "coordinates": [ -58.412878, -34.654801 ] } },
{ "type": "Feature", "properties": { "id": 39.0, "nombre": "039 - CONGRESO II", "direccion": "Rivadavia Av. y Parana", "lat": -34.6092213, "long": -58.3876925, "RADIO_ID": "1_11_12" }, "geometry": { "type": "Point", "coordinates": [ -58.3876925, -34.6092213 ] } },
{ "type": "Feature", "properties": { "id": 92.0, "nombre": "092 - Salcedo", "direccion": "Salcedo 2908", "lat": -34.6316444, "long": -58.4053386, "RADIO_ID": "4_6_6" }, "geometry": { "type": "Point", "coordinates": [ -58.4053386, -34.6316444 ] } },
{ "type": "Feature", "properties": { "id": 11.0, "nombre": "011 - Tribunales", "direccion": "Talcahuano 600", "lat": -34.6011762, "long": -58.3850791, "RADIO_ID": "1_9_2" }, "geometry": { "type": "Point", "coordinates": [ -58.3850791, -34.6011762 ] } },
{ "type": "Feature", "properties": { "id": 195.0, "nombre": "357 - PLAZA MARTIN FIERRO", "direccion": "La Rioja y Cochabamba", "lat": -34.6260785, "long": -58.407389, "RADIO_ID": "3_26_5" }, "geometry": { "type": "Point", "coordinates": [ -58.407389, -34.6260785 ] } },
{ "type": "Feature", "properties": { "id": 137.0, "nombre": "137 - AZOPARDO Y CHILE", "direccion": "Azopardo 700", "lat": -34.6155977, "long": -58.3674923, "RADIO_ID": "1_14_8" }, "geometry": { "type": "Point", "coordinates": [ -58.3674923, -34.6155977 ] } },
{ "type": "Feature", "properties": { "id": 7.0, "nombre": "007 - OBELISCO", "direccion": "Pellegrini, Carlos 215", "lat": -34.606498, "long": -58.381098, "RADIO_ID": "1_12_9" }, "geometry": { "type": "Point", "coordinates": [ -58.381098, -34.606498 ] } },
{ "type": "Feature", "properties": { "id": 448.0, "nombre": "393 - Barrio 31", "direccion": "Carlos H. Perette 11", "lat": -34.5832497, "long": -58.3787309, "RADIO_ID": "1_2_11" }, "geometry": { "type": "Point", "coordinates": [ -58.3787309, -34.5832497 ] } },
{ "type": "Feature", "properties": { "id": 271.0, "nombre": "365 - Venancio Flores", "direccion": "Argerich y Flores, Venancio, Gral.", "lat": -34.63008, "long": -58.47426, "RADIO_ID": "10_12_6" }, "geometry": { "type": "Point", "coordinates": [ -58.47426, -34.63008 ] } },
{ "type": "Feature", "properties": { "id": 132.0, "nombre": "132 - CORRIENTES", "direccion": "Reconquista y Corrientes Av.", "lat": -34.6033685, "long": -58.372763, "RADIO_ID": "1_9_19" }, "geometry": { "type": "Point", "coordinates": [ -58.372763, -34.6033685 ] } },
{ "type": "Feature", "properties": { "id": 135.0, "nombre": "135 - MARCELO T. DE ALVEAR", "direccion": "Esmeralda 902", "lat": -34.5972818, "long": -58.3787856, "RADIO_ID": "1_7_8" }, "geometry": { "type": "Point", "coordinates": [ -58.3787856, -34.5972818 ] } },
{ "type": "Feature", "properties": { "id": 283.0, "nombre": "228 - BALDOMERO", "direccion": "Fernandez Moreno, Baldomero 2289", "lat": -34.6355054, "long": -58.456035, "RADIO_ID": "7_13_10" }, "geometry": { "type": "Point", "coordinates": [ -58.456035, -34.6355054 ] } },
{ "type": "Feature", "properties": { "id": 2.0, "nombre": "002 - Retiro I", "direccion": "Ramos Mejia, Jose Maria, Dr. Av. y Del Libertador Av.", "lat": -34.5924233, "long": -58.3747151, "RADIO_ID": "1_3_21" }, "geometry": { "type": "Point", "coordinates": [ -58.37471510000001, -34.5924233 ] } },
{ "type": "Feature", "properties": { "id": 413.0, "nombre": "382 - CMD", "direccion": "Algarrobo 1016", "lat": -34.6545736, "long": -58.379346, "RADIO_ID": "4_23_9" }, "geometry": { "type": "Point", "coordinates": [ -58.379346, -34.6545736 ] } },
{ "type": "Feature", "properties": { "id": 406.0, "nombre": "326 - Emma De La Barra", "direccion": "De La Barra,  Emma 301", "lat": -34.6009283, "long": -58.3642613, "RADIO_ID": "1_13_1" }, "geometry": { "type": "Point", "coordinates": [ -58.3642613, -34.6009283 ] } },
{ "type": "Feature", "properties": { "id": 394.0, "nombre": "302 - Plaza Jose Marti", "direccion": "Acosta, Mariano 1801", "lat": -34.649578, "long": -58.462646, "RADIO_ID": "7_15_1" }, "geometry": { "type": "Point", "coordinates": [ -58.462646, -34.649578 ] } },
{ "type": "Feature", "properties": { "id": 57.0, "nombre": "057 - BELGRANO", "direccion": "Balcarce 482", "lat": -34.6134468, "long": -58.3706051, "RADIO_ID": "1_14_7" }, "geometry": { "type": "Point", "coordinates": [ -58.3706051, -34.6134468 ] } },
{ "type": "Feature", "properties": { "id": 127.0, "nombre": "127 - SANTOS DUMONT Y OTERO", "direccion": "Dumont, Santos 4392", "lat": -34.5923884, "long": -58.453077, "RADIO_ID": "15_9_5" }, "geometry": { "type": "Point", "coordinates": [ -58.453077, -34.5923884 ] } },
{ "type": "Feature", "properties": { "id": 163.0, "nombre": "163 - ONCE II", "direccion": "Mitre, Bartolome y Pueyrredon Av.", "lat": -34.6095663, "long": -58.4064308, "RADIO_ID": "3_9_10" }, "geometry": { "type": "Point", "coordinates": [ -58.4064308, -34.6095663 ] } },
{ "type": "Feature", "properties": { "id": 251.0, "nombre": "388 - Plaza Jose C Paz", "direccion": "Pepiri y Paz, Jose C.", "lat": -34.6446224, "long": -58.409772, "RADIO_ID": "4_5_8" }, "geometry": { "type": "Point", "coordinates": [ -58.409772, -34.6446224 ] } },
{ "type": "Feature", "properties": { "id": 300.0, "nombre": "321 - PERITO MORENO", "direccion": "Fernandez De La Cruz, F., Gral. Av. y Erezcano", "lat": -34.6513917, "long": -58.4327288, "RADIO_ID": "7_18_6" }, "geometry": { "type": "Point", "coordinates": [ -58.4327288, -34.6513917 ] } },
{ "type": "Feature", "properties": { "id": 50.0, "nombre": "050 - Hospital Rivadavia", "direccion": "Pereyra Lucena 2516", "lat": -34.5837348, "long": -58.4010798, "RADIO_ID": "14_31_11" }, "geometry": { "type": "Point", "coordinates": [ -58.4010798, -34.5837348 ] } },
{ "type": "Feature", "properties": { "id": 203.0, "nombre": "108 - Usina del Arte", "direccion": "Caffarena, Agustin R. y Don Pedro De Mendoza Av.", "lat": -34.628511, "long": -58.356004, "RADIO_ID": "4_17_1" }, "geometry": { "type": "Point", "coordinates": [ -58.356004, -34.628511 ] } },
{ "type": "Feature", "properties": { "id": 393.0, "nombre": "300 - Jose Artigas", "direccion": "Balboa 524", "lat": -34.590848, "long": -58.468535, "RADIO_ID": "15_7_1" }, "geometry": { "type": "Point", "coordinates": [ -58.468535, -34.590848 ] } },
{ "type": "Feature", "properties": { "id": 380.0, "nombre": "319 - Cervantes y Trelles", "direccion": "Cervantes 1683", "lat": -34.6060382, "long": -58.46481, "RADIO_ID": "11_21_8" }, "geometry": { "type": "Point", "coordinates": [ -58.46481, -34.6060382 ] } },
{ "type": "Feature", "properties": { "id": 303.0, "nombre": "238 - RIVERA", "direccion": "Rivera, Pedro I., Dr. 2583", "lat": -34.5577145, "long": -58.4626871, "RADIO_ID": "13_7_4" }, "geometry": { "type": "Point", "coordinates": [ -58.4626871, -34.5577145 ] } },
{ "type": "Feature", "properties": { "id": 30.0, "nombre": "030 - Peña", "direccion": "Peña y Azcuenaga", "lat": -34.5908211, "long": -58.3973698, "RADIO_ID": "2_9_5" }, "geometry": { "type": "Point", "coordinates": [ -58.3973698, -34.5908211 ] } },
{ "type": "Feature", "properties": { "id": 228.0, "nombre": "010 - Madero UCA", "direccion": "Moreau De Justo, Alicia Av. 1600", "lat": -34.6162819, "long": -58.3657444, "RADIO_ID": "1_13_13" }, "geometry": { "type": "Point", "coordinates": [ -58.3657444, -34.6162819 ] } },
{ "type": "Feature", "properties": { "id": 70.0, "nombre": "070 - ARAOZ", "direccion": "Araoz 1413", "lat": -34.5926862, "long": -58.4260597, "RADIO_ID": "14_21_10" }, "geometry": { "type": "Point", "coordinates": [ -58.4260597, -34.5926862 ] } },
{ "type": "Feature", "properties": { "id": 58.0, "nombre": "058 - Ministro Carranza", "direccion": "Santa Fe Av. y Dorrego", "lat": -34.5752773, "long": -58.4346883, "RADIO_ID": "14_4_9" }, "geometry": { "type": "Point", "coordinates": [ -58.4346883, -34.5752773 ] } },
{ "type": "Feature", "properties": { "id": 402.0, "nombre": "315 - BEIRO Y SAN MARTÍN", "direccion": "Beiro, Francisco Av. 3209", "lat": -34.5976121, "long": -58.4985424, "RADIO_ID": "11_3_8" }, "geometry": { "type": "Point", "coordinates": [ -58.4985424, -34.5976121 ] } },
{ "type": "Feature", "properties": { "id": 364.0, "nombre": "381 - Matienzo Y Arce", "direccion": "Matienzo, Benjamin, Teniente 1798", "lat": -34.568722, "long": -58.434381, "RADIO_ID": "14_3_10" }, "geometry": { "type": "Point", "coordinates": [ -58.434381, -34.568722 ] } },
{ "type": "Feature", "properties": { "id": 375.0, "nombre": "301 - Arregui Y Terrada", "direccion": "Arregui 2793", "lat": -34.6050537, "long": -58.4847864, "RADIO_ID": "11_12_6" }, "geometry": { "type": "Point", "coordinates": [ -58.4847864, -34.6050537 ] } },
{ "type": "Feature", "properties": { "id": 267.0, "nombre": "353 - PLAZA VELEZ SARSFIELD", "direccion": "Chivilcoy y Avellaneda Av.", "lat": -34.6296512, "long": -58.4835484, "RADIO_ID": "10_11_9" }, "geometry": { "type": "Point", "coordinates": [ -58.4835484, -34.6296512 ] } },
{ "type": "Feature", "properties": { "id": 400.0, "nombre": "313 - De Los Incas", "direccion": "Donado 1378", "lat": -34.579751, "long": -58.471003, "RADIO_ID": "15_3_3" }, "geometry": { "type": "Point", "coordinates": [ -58.471003, -34.579751 ] } },
{ "type": "Feature", "properties": { "id": 376.0, "nombre": "324 - Las Victorias", "direccion": "Vallese, Felipe 4083", "lat": -34.626698, "long": -58.4871352, "RADIO_ID": "10_11_2" }, "geometry": { "type": "Point", "coordinates": [ -58.4871352, -34.626698 ] } },
{ "type": "Feature", "properties": { "id": 207.0, "nombre": "123 - Armenia", "direccion": "Armenia 2315", "lat": -34.5852485, "long": -58.420906, "RADIO_ID": "14_19_1" }, "geometry": { "type": "Point", "coordinates": [ -58.420906, -34.5852485 ] } },
{ "type": "Feature", "properties": { "id": 382.0, "nombre": "204 - Biarritz", "direccion": "Biarritz 2403", "lat": -34.605452, "long": -58.477426, "RADIO_ID": "11_11_5" }, "geometry": { "type": "Point", "coordinates": [ -58.477426, -34.605452 ] } },
{ "type": "Feature", "properties": { "id": 268.0, "nombre": "399 - GARCIA DEL RIO", "direccion": "Garcia Del Rio y Pinto", "lat": -34.5500734, "long": -58.476643, "RADIO_ID": "12_5_1" }, "geometry": { "type": "Point", "coordinates": [ -58.476643, -34.5500734 ] } },
{ "type": "Feature", "properties": { "id": 215.0, "nombre": "113 - Guatemala", "direccion": "Guatemala 4773", "lat": -34.5858843, "long": -58.4251226, "RADIO_ID": "14_14_4" }, "geometry": { "type": "Point", "coordinates": [ -58.4251226, -34.5858843 ] } },
{ "type": "Feature", "properties": { "id": 419.0, "nombre": "359 - Plaza Balcarce", "direccion": "Jaramillo 2324", "lat": -34.547673, "long": -58.467851, "RADIO_ID": "13_2_8" }, "geometry": { "type": "Point", "coordinates": [ -58.467851, -34.547673 ] } },
{ "type": "Feature", "properties": { "id": 391.0, "nombre": "295 - Larralde", "direccion": "Vidal 3607", "lat": -34.5508944, "long": -58.4719176, "RADIO_ID": "12_5_11" }, "geometry": { "type": "Point", "coordinates": [ -58.4719176, -34.5508944 ] } },
{ "type": "Feature", "properties": { "id": 22.0, "nombre": "022 - Arenales", "direccion": "Cerrito y Arenales", "lat": -34.5938629, "long": -58.3825498, "RADIO_ID": "1_5_2" }, "geometry": { "type": "Point", "coordinates": [ -58.3825498, -34.5938629 ] } },
{ "type": "Feature", "properties": { "id": 274.0, "nombre": "369 - Ciudad De La Paz", "direccion": "Ciudad De La Paz 2816", "lat": -34.5563511, "long": -58.4630428, "RADIO_ID": "13_6_6" }, "geometry": { "type": "Point", "coordinates": [ -58.4630428, -34.5563511 ] } },
{ "type": "Feature", "properties": { "id": 355.0, "nombre": "242 - Plazoleta Rafael del Riego", "direccion": "O'Higgins 1327", "lat": -34.5675048, "long": -58.4465088, "RADIO_ID": "14_1_4" }, "geometry": { "type": "Point", "coordinates": [ -58.4465088, -34.5675048 ] } },
{ "type": "Feature", "properties": { "id": 341.0, "nombre": "216 - Margariños Cervantes y Argerich", "direccion": "Magariños Cervantes, A. 3011", "lat": -34.6142336, "long": -58.4813858, "RADIO_ID": "11_16_2" }, "geometry": { "type": "Point", "coordinates": [ -58.4813858, -34.6142336 ] } },
{ "type": "Feature", "properties": { "id": 165.0, "nombre": "165 - PLAZA MONSEÑOR MIGUEL DE ANDREA", "direccion": "Anchorena, Tomas Manuel De, Dr. y Cabrera, Jose A.", "lat": -34.597048, "long": -58.407614, "RADIO_ID": "2_20_4" }, "geometry": { "type": "Point", "coordinates": [ -58.407614, -34.597048 ] } },
{ "type": "Feature", "properties": { "id": 361.0, "nombre": "258 - Plaza J.J. Paso", "direccion": "Moldes 1399", "lat": -34.569147, "long": -58.453732, "RADIO_ID": "13_23_3" }, "geometry": { "type": "Point", "coordinates": [ -58.453732, -34.569147 ] } },
{ "type": "Feature", "properties": { "id": 259.0, "nombre": "290 - Club Excursionistas", "direccion": "Miñones 1818", "lat": -34.5580469, "long": -58.4434052, "RADIO_ID": "13_12_9" }, "geometry": { "type": "Point", "coordinates": [ -58.4434052, -34.5580469 ] } },
{ "type": "Feature", "properties": { "id": 269.0, "nombre": "260 - SAN MIGUEL DE GARICOITS", "direccion": "Delgado y Loreto, Virrey", "lat": -34.577296, "long": -58.457854, "RADIO_ID": "13_25_3" }, "geometry": { "type": "Point", "coordinates": [ -58.457854, -34.577296 ] } },
{ "type": "Feature", "properties": { "id": 337.0, "nombre": "208 - Segui", "direccion": "Segui, F. J., Alte. 2419", "lat": -34.5985, "long": -58.4613, "RADIO_ID": "15_8_2" }, "geometry": { "type": "Point", "coordinates": [ -58.4613, -34.5985 ] } },
{ "type": "Feature", "properties": { "id": 46.0, "nombre": "046 - Chile", "direccion": "Peru 718", "lat": -34.6163012, "long": -58.3743749, "RADIO_ID": "1_14_12" }, "geometry": { "type": "Point", "coordinates": [ -58.3743749, -34.6163012 ] } },
{ "type": "Feature", "properties": { "id": 262.0, "nombre": "349 - Plaza Saenz Peña", "direccion": "Lamas, Andres y Escalada De San Martin, R.", "lat": -34.60962, "long": -58.4673963, "RADIO_ID": "11_20_10" }, "geometry": { "type": "Point", "coordinates": [ -58.4673963, -34.60962 ] } },
{ "type": "Feature", "properties": { "id": 222.0, "nombre": "160 - Godoy Cruz y Libertador", "direccion": "Godoy Cruz 3279", "lat": -34.5727715, "long": -58.4206642, "RADIO_ID": "14_11_3" }, "geometry": { "type": "Point", "coordinates": [ -58.4206642, -34.5727715 ] } },
{ "type": "Feature", "properties": { "id": 246.0, "nombre": "338 - Sucre y Dragones", "direccion": "Sucre, Antonio Jose De, Mcal. 877", "lat": -34.554326, "long": -58.4389256, "RADIO_ID": "13_12_6" }, "geometry": { "type": "Point", "coordinates": [ -58.438925600000012, -34.554326 ] } },
{ "type": "Feature", "properties": { "id": 370.0, "nombre": "305 - Plaza Martin Rodriguez", "direccion": "Pareja 3016", "lat": -34.590964, "long": -58.500336, "RADIO_ID": "12_22_10" }, "geometry": { "type": "Point", "coordinates": [ -58.500336, -34.590964 ] } },
{ "type": "Feature", "properties": { "id": 190.0, "nombre": "190 - JUNCAL", "direccion": "Juncal y Salguero, Jeronimo", "lat": -34.5850763, "long": -58.4111136, "RADIO_ID": "14_29_10" }, "geometry": { "type": "Point", "coordinates": [ -58.4111136, -34.5850763 ] } },
{ "type": "Feature", "properties": { "id": 95.0, "nombre": "095 - ESMERALDA", "direccion": "Esmeralda 516", "lat": -34.6021121, "long": -58.3781678, "RADIO_ID": "1_9_16" }, "geometry": { "type": "Point", "coordinates": [ -58.3781678, -34.6021121 ] } },
{ "type": "Feature", "properties": { "id": 436.0, "nombre": "253 - Plaza Colegiales", "direccion": null, "lat": -34.5782972, "long": -58.4450299, "RADIO_ID": "13_29_8" }, "geometry": { "type": "Point", "coordinates": [ -58.4450299, -34.5782972 ] } },
{ "type": "Feature", "properties": { "id": 275.0, "nombre": "256 - PLAZA NORUEGA", "direccion": "Ciudad De La Paz y Mendoza", "lat": -34.5619095, "long": -58.4585729, "RADIO_ID": "13_15_1" }, "geometry": { "type": "Point", "coordinates": [ -58.4585729, -34.5619095 ] } },
{ "type": "Feature", "properties": { "id": 278.0, "nombre": "233 - MONROE", "direccion": "Superi 2519", "lat": -34.564083, "long": -58.469789, "RADIO_ID": "12_7_10" }, "geometry": { "type": "Point", "coordinates": [ -58.469789, -34.564083 ] } },
{ "type": "Feature", "properties": { "id": 338.0, "nombre": "210 - Terrero", "direccion": "Terrero 3211", "lat": -34.602931, "long": -58.479421, "RADIO_ID": "11_11_3" }, "geometry": { "type": "Point", "coordinates": [ -58.479421, -34.602931 ] } },
{ "type": "Feature", "properties": { "id": 333.0, "nombre": "203 - Beiro", "direccion": "Beiro, Francisco Av. 3572", "lat": -34.6004332, "long": -58.5036238, "RADIO_ID": "11_3_10" }, "geometry": { "type": "Point", "coordinates": [ -58.5036238, -34.6004332 ] } },
{ "type": "Feature", "properties": { "id": 235.0, "nombre": "281 - Villa Urquiza", "direccion": "Triunvirato Av. y Roosevelt Franklin D. Av.", "lat": -34.5737764, "long": -58.4868051, "RADIO_ID": "12_16_7" }, "geometry": { "type": "Point", "coordinates": [ -58.4868051, -34.5737764 ] } },
{ "type": "Feature", "properties": { "id": 200.0, "nombre": "200 - AUSTRIA Y FRENCH", "direccion": "Austria 2080", "lat": -34.5883282, "long": -58.4038684, "RADIO_ID": "2_12_5" }, "geometry": { "type": "Point", "coordinates": [ -58.4038684, -34.5883282 ] } },
{ "type": "Feature", "properties": { "id": 385.0, "nombre": "268 - Plaza Aristóbulo Del Valle", "direccion": "Campana y Sastre, Marcos", "lat": -34.6061187, "long": -58.4934192, "RADIO_ID": "11_8_9" }, "geometry": { "type": "Point", "coordinates": [ -58.493419200000012, -34.6061187 ] } },
{ "type": "Feature", "properties": { "id": 64.0, "nombre": "064 - RIOBAMBA", "direccion": "Riobamba 1264", "lat": -34.5936508, "long": -58.3941087, "RADIO_ID": "2_8_7" }, "geometry": { "type": "Point", "coordinates": [ -58.3941087, -34.5936508 ] } },
{ "type": "Feature", "properties": { "id": 272.0, "nombre": "347 - PLAZA MALAVER", "direccion": "Heredia 328", "lat": -34.5883744, "long": -58.4668651, "RADIO_ID": "15_4_14" }, "geometry": { "type": "Point", "coordinates": [ -58.4668651, -34.5883744 ] } },
{ "type": "Feature", "properties": { "id": 260.0, "nombre": "371 - Paseo de las Americas", "direccion": "Juramento 646", "lat": -34.550961, "long": -58.4381142, "RADIO_ID": "13_12_5" }, "geometry": { "type": "Point", "coordinates": [ -58.4381142, -34.550961 ] } },
{ "type": "Feature", "properties": { "id": 176.0, "nombre": "176 - PINZÓN Y MARTÍN RODRIGUEZ", "direccion": "Pinzon 469", "lat": -34.6341873, "long": -58.3611029, "RADIO_ID": "4_19_2" }, "geometry": { "type": "Point", "coordinates": [ -58.3611029, -34.6341873 ] } },
{ "type": "Feature", "properties": { "id": 276.0, "nombre": "296 - FREIRE", "direccion": "Freire, Ramon, Cap. Gral. 2899", "lat": -34.559476, "long": -58.4699652, "RADIO_ID": "12_7_4" }, "geometry": { "type": "Point", "coordinates": [ -58.4699652, -34.559476 ] } },
{ "type": "Feature", "properties": { "id": 233.0, "nombre": "389 - Plaza República De Mexico", "direccion": "La Pampa 693", "lat": -34.5539765, "long": -58.4360367, "RADIO_ID": "13_12_5" }, "geometry": { "type": "Point", "coordinates": [ -58.43603670000001, -34.5539765 ] } },
{ "type": "Feature", "properties": { "id": 289.0, "nombre": "255 - BARRANCAS DE BELGRANO", "direccion": "Sucre, Antonio Jose De, Mcal. y Vertiz Virrey Av.", "lat": -34.5597934, "long": -58.4484316, "RADIO_ID": "13_13_1" }, "geometry": { "type": "Point", "coordinates": [ -58.4484316, -34.5597934 ] } },
{ "type": "Feature", "properties": { "id": 321.0, "nombre": "246 - EDUARDO OLIVERA", "direccion": "Campos, Luis M. Av. 1631", "lat": -34.561851, "long": -58.444754, "RADIO_ID": "13_13_12" }, "geometry": { "type": "Point", "coordinates": [ -58.444754, -34.561851 ] } },
{ "type": "Feature", "properties": { "id": 434.0, "nombre": "247 - Plaza Lucio Demare", "direccion": "O'Higgins 3750", "lat": -34.5457258, "long": -58.4650865, "RADIO_ID": "13_2_4" }, "geometry": { "type": "Point", "coordinates": [ -58.4650865, -34.5457258 ] } },
{ "type": "Feature", "properties": { "id": 264.0, "nombre": "283 - CNEL. JUAN CRUZ CZETZ", "direccion": "Balbin, Ricardo, Dr. Av. y Larralde, Crisologo Av.", "lat": -34.5559308, "long": -58.4812325, "RADIO_ID": "12_6_9" }, "geometry": { "type": "Point", "coordinates": [ -58.4812325, -34.5559308 ] } },
{ "type": "Feature", "properties": { "id": 170.0, "nombre": "170 - SAN LUIS Y ECUADOR", "direccion": "San Luis 2862", "lat": -34.5996644, "long": -58.4061023, "RADIO_ID": "3_2_1" }, "geometry": { "type": "Point", "coordinates": [ -58.4061023, -34.5996644 ] } },
{ "type": "Feature", "properties": { "id": 51.0, "nombre": "051 - TUCUMAN", "direccion": "Tucuman y 9 De Julio Av.", "lat": -34.6014776, "long": -58.3821261, "RADIO_ID": "1_9_3" }, "geometry": { "type": "Point", "coordinates": [ -58.3821261, -34.6014776 ] } },
{ "type": "Feature", "properties": { "id": 106.0, "nombre": "106 - RINCÓN", "direccion": "Republica Bolivariana De Venezuela 2091", "lat": -34.6152509, "long": -58.3958827, "RADIO_ID": "3_19_3" }, "geometry": { "type": "Point", "coordinates": [ -58.3958827, -34.6152509 ] } },
{ "type": "Feature", "properties": { "id": 33.0, "nombre": "033 - Facultad de Medicina", "direccion": "Uriburu Jose E., Pres. 987", "lat": -34.5970909, "long": -58.3989807, "RADIO_ID": "2_18_3" }, "geometry": { "type": "Point", "coordinates": [ -58.3989807, -34.5970909 ] } },
{ "type": "Feature", "properties": { "id": 181.0, "nombre": "181 - BILLINGHURST Y MANSILLA", "direccion": "Billinghurst 1533", "lat": -34.5927221, "long": -58.4120394, "RADIO_ID": "2_25_1" }, "geometry": { "type": "Point", "coordinates": [ -58.4120394, -34.5927221 ] } },
{ "type": "Feature", "properties": { "id": 60.0, "nombre": "060 - 25 De Mayo", "direccion": "25 De Mayo 527", "lat": -34.6016509, "long": -58.371079, "RADIO_ID": "1_9_14" }, "geometry": { "type": "Point", "coordinates": [ -58.371079, -34.6016509 ] } },
{ "type": "Feature", "properties": { "id": 214.0, "nombre": "142 - Armenia y Gorriti", "direccion": "Armenia 1525", "lat": -34.5905808, "long": -58.4289624, "RADIO_ID": "14_21_3" }, "geometry": { "type": "Point", "coordinates": [ -58.4289624, -34.5905808 ] } },
{ "type": "Feature", "properties": { "id": 56.0, "nombre": "056 - Plaza Palermo Viejo", "direccion": "Costa Rica y Armenia", "lat": -34.588567, "long": -58.425999, "RADIO_ID": "14_14_7" }, "geometry": { "type": "Point", "coordinates": [ -58.425999, -34.588567 ] } },
{ "type": "Feature", "properties": { "id": 193.0, "nombre": "193 - ARENALES Y AGUERO", "direccion": "Arenales y Aguero", "lat": -34.5908626, "long": -58.4061652, "RADIO_ID": "2_22_1" }, "geometry": { "type": "Point", "coordinates": [ -58.4061652, -34.5908626 ] } },
{ "type": "Feature", "properties": { "id": 202.0, "nombre": "001 - FACULTAD DE DERECHO", "direccion": "Figueroa Alcorta, Pres. Av. 2120", "lat": -34.583811, "long": -58.390967, "RADIO_ID": "2_2_3" }, "geometry": { "type": "Point", "coordinates": [ -58.390967, -34.583811 ] } },
{ "type": "Feature", "properties": { "id": 150.0, "nombre": "150 - VERA PEÑALOZA", "direccion": "Vera Peñaloza,  Rosario y Cossettini, Olga", "lat": -34.6181003, "long": -58.3631389, "RADIO_ID": "1_13_13" }, "geometry": { "type": "Point", "coordinates": [ -58.3631389, -34.6181003 ] } },
{ "type": "Feature", "properties": { "id": 158.0, "nombre": "158 - VILLARROEL", "direccion": "Villarroel 1321", "lat": -34.592735, "long": -58.4450697, "RADIO_ID": "15_12_6" }, "geometry": { "type": "Point", "coordinates": [ -58.445069700000012, -34.592735 ] } },
{ "type": "Feature", "properties": { "id": 359.0, "nombre": "250 - Fleni", "direccion": "Montañeses 2292", "lat": -34.555654, "long": -58.4504687, "RADIO_ID": "13_10_5" }, "geometry": { "type": "Point", "coordinates": [ -58.4504687, -34.555654 ] } },
{ "type": "Feature", "properties": { "id": 319.0, "nombre": "329 - PASO Y LAVALLE", "direccion": "Paso 486", "lat": -34.6036, "long": -58.4036, "RADIO_ID": "3_3_8" }, "geometry": { "type": "Point", "coordinates": [ -58.4036, -34.6036 ] } },
{ "type": "Feature", "properties": { "id": 330.0, "nombre": "148 - Paternal", "direccion": "12 De Octubre 1718", "lat": -34.6008, "long": -58.47, "RADIO_ID": "15_7_8" }, "geometry": { "type": "Point", "coordinates": [ -58.47, -34.6008 ] } },
{ "type": "Feature", "properties": { "id": 306.0, "nombre": "380 - Paysandu y Galicia", "direccion": "Galicia 1220", "lat": -34.608465, "long": -58.45585, "RADIO_ID": "6_1_7" }, "geometry": { "type": "Point", "coordinates": [ -58.45585, -34.608465 ] } },
{ "type": "Feature", "properties": { "id": 322.0, "nombre": "289 - MONTAÑESES", "direccion": "Montañeses 2786", "lat": -34.5513269, "long": -58.4541858, "RADIO_ID": "13_3_9" }, "geometry": { "type": "Point", "coordinates": [ -58.4541858, -34.5513269 ] } },
{ "type": "Feature", "properties": { "id": 152.0, "nombre": "152 - JULIETA LANTERI", "direccion": "Vera Peñaloza,  Rosario 599", "lat": -34.6181645, "long": -58.3596311, "RADIO_ID": "1_13_14" }, "geometry": { "type": "Point", "coordinates": [ -58.3596311, -34.6181645 ] } },
{ "type": "Feature", "properties": { "id": 79.0, "nombre": "079 - AZUCENA VILLAFLOR", "direccion": "Villaflor, Azucena y Dealessi, Pierina", "lat": -34.61189, "long": -58.36393, "RADIO_ID": "1_13_4" }, "geometry": { "type": "Point", "coordinates": [ -58.36393, -34.61189 ] } },
{ "type": "Feature", "properties": { "id": 224.0, "nombre": "133 - Nicaragua", "direccion": "Nicaragua y Bonpland", "lat": -34.5808537, "long": -58.434484, "RADIO_ID": "14_8_2" }, "geometry": { "type": "Point", "coordinates": [ -58.434484, -34.5808537 ] } },
{ "type": "Feature", "properties": { "id": 208.0, "nombre": "145 - RAVIGNANI", "direccion": "Ravignani, Emilio, Dr. y Costa Rica", "lat": -34.5804702, "long": -58.4379925, "RADIO_ID": "14_7_5" }, "geometry": { "type": "Point", "coordinates": [ -58.4379925, -34.5804702 ] } },
{ "type": "Feature", "properties": { "id": 379.0, "nombre": "390 - De Los Ombues", "direccion": "De Los Ombues Av. y Bello, Andres", "lat": -34.560162, "long": -58.428163, "RADIO_ID": "14_10_2" }, "geometry": { "type": "Point", "coordinates": [ -58.428163, -34.560162 ] } },
{ "type": "Feature", "properties": { "id": 277.0, "nombre": "292 - PLAZA BOLIVIA", "direccion": "Olleros Av. y Del Libertador Av.", "lat": -34.5634645, "long": -58.4360367, "RADIO_ID": "14_10_1" }, "geometry": { "type": "Point", "coordinates": [ -58.43603670000001, -34.5634645 ] } },
{ "type": "Feature", "properties": { "id": 43.0, "nombre": "334 - CENTRO DE EXPOSICIONES", "direccion": "Figueroa Alcorta, Pres. Av. 2133", "lat": -34.583918, "long": -58.3900194, "RADIO_ID": "2_2_3" }, "geometry": { "type": "Point", "coordinates": [ -58.3900194, -34.583918 ] } },
{ "type": "Feature", "properties": { "id": 210.0, "nombre": "335 - General Urquiza", "direccion": "Figueroa Alcorta, Pres. Av. y Sarmiento Av.", "lat": -34.572132, "long": -58.4113228, "RADIO_ID": "14_10_1" }, "geometry": { "type": "Point", "coordinates": [ -58.4113228, -34.572132 ] } },
{ "type": "Feature", "properties": { "id": 418.0, "nombre": "345 - Plaza Mafalda", "direccion": "Arenal, Concepcion y Martinez, Enrique, Gral.", "lat": -34.580773, "long": -58.4446136, "RADIO_ID": "13_29_11" }, "geometry": { "type": "Point", "coordinates": [ -58.4446136, -34.580773 ] } },
{ "type": "Feature", "properties": { "id": 383.0, "nombre": "263 - Plaza Echeverria", "direccion": "Nahuel Huapi y Triunvirato Av.", "lat": -34.571621, "long": -58.489026, "RADIO_ID": "12_16_3" }, "geometry": { "type": "Point", "coordinates": [ -58.489026, -34.571621 ] } },
{ "type": "Feature", "properties": { "id": 388.0, "nombre": "279 - Andonaegui", "direccion": "Andonaegui 1902", "lat": -34.580927, "long": -58.48455, "RADIO_ID": "12_14_9" }, "geometry": { "type": "Point", "coordinates": [ -58.48455, -34.580927 ] } },
{ "type": "Feature", "properties": { "id": 444.0, "nombre": "061-Ministerio de Economia", "direccion": "Balcarce y Yrigoyen, Hipolito Av.", "lat": -34.6089087, "long": -58.3711541, "RADIO_ID": "1_14_2" }, "geometry": { "type": "Point", "coordinates": [ -58.3711541, -34.6089087 ] } },
{ "type": "Feature", "properties": { "id": 20.0, "nombre": "020 - Distrito Audiovisual", "direccion": "Zapiola y Dorrego", "lat": -34.5798619, "long": -58.4417756, "RADIO_ID": "13_29_11" }, "geometry": { "type": "Point", "coordinates": [ -58.4417756, -34.5798619 ] } },
{ "type": "Feature", "properties": { "id": 4.0, "nombre": "004 - Plaza Roma", "direccion": "Lavalle y Bouchard", "lat": -34.6017255, "long": -58.3687628, "RADIO_ID": "1_9_14" }, "geometry": { "type": "Point", "coordinates": [ -58.3687628, -34.6017255 ] } },
{ "type": "Feature", "properties": { "id": 422.0, "nombre": "377 - Ciudad Universitaria III", "direccion": null, "lat": -34.5409892, "long": -58.4442786, "RADIO_ID": "13_11_1" }, "geometry": { "type": "Point", "coordinates": [ -58.4442786, -34.540989200000013 ] } },
{ "type": "Feature", "properties": { "id": 36.0, "nombre": "036 - MAIPÚ", "direccion": "Maipu 300", "lat": -34.6045481, "long": -58.3767677, "RADIO_ID": "1_12_10" }, "geometry": { "type": "Point", "coordinates": [ -58.3767677, -34.6045481 ] } },
{ "type": "Feature", "properties": { "id": 187.0, "nombre": "261 - QUINTEROS LIDORO", "direccion": "Quinteros, Lidoro J. Av. 1483", "lat": -34.5528626, "long": -58.450854, "RADIO_ID": "13_10_4" }, "geometry": { "type": "Point", "coordinates": [ -58.450854, -34.5528626 ] } },
{ "type": "Feature", "properties": { "id": 164.0, "nombre": "164 - FACULTAD DE INGENERIA", "direccion": "Estados Unidos 21", "lat": -34.6181442, "long": -58.3669021, "RADIO_ID": "1_24_3" }, "geometry": { "type": "Point", "coordinates": [ -58.3669021, -34.6181442 ] } },
{ "type": "Feature", "properties": { "id": 40.0, "nombre": "040 - Sarmiento", "direccion": "Sarmiento 481", "lat": -34.604461, "long": -58.373499, "RADIO_ID": "1_12_11" }, "geometry": { "type": "Point", "coordinates": [ -58.373499, -34.604461 ] } },
{ "type": "Feature", "properties": { "id": 114.0, "nombre": "114 - DELLA PAOLERA", "direccion": "Della Paolera, Carlos M. 297", "lat": -34.5949745, "long": -58.3722554, "RADIO_ID": "1_7_13" }, "geometry": { "type": "Point", "coordinates": [ -58.3722554, -34.5949745 ] } },
{ "type": "Feature", "properties": { "id": 78.0, "nombre": "078 - SUIPACHA Y ARROYO", "direccion": "Suipacha 1420", "lat": -34.5910737, "long": -58.3799953, "RADIO_ID": "1_6_1" }, "geometry": { "type": "Point", "coordinates": [ -58.3799953, -34.5910737 ] } },
{ "type": "Feature", "properties": { "id": 115.0, "nombre": "115 - QUINTANA", "direccion": "Quintana, Manuel, Pres. Av. 600", "lat": -34.5878001, "long": -58.3908362, "RADIO_ID": "2_3_3" }, "geometry": { "type": "Point", "coordinates": [ -58.39083620000001, -34.5878001 ] } },
{ "type": "Feature", "properties": { "id": 119.0, "nombre": "119 - EMILIO MITRE", "direccion": "Pacheco De Melo, Jose Andres y Larrea", "lat": -34.5885608, "long": -58.3973293, "RADIO_ID": "2_9_2" }, "geometry": { "type": "Point", "coordinates": [ -58.3973293, -34.5885608 ] } },
{ "type": "Feature", "properties": { "id": 53.0, "nombre": "053 - Ricardo Rojas", "direccion": "San Martin 1068", "lat": -34.5952579, "long": -58.3743514, "RADIO_ID": "1_7_2" }, "geometry": { "type": "Point", "coordinates": [ -58.3743514, -34.5952579 ] } },
{ "type": "Feature", "properties": { "id": 230.0, "nombre": "259 - PLAZA CASTELLI", "direccion": "Echeverria 3249", "lat": -34.5678255, "long": -58.4645037, "RADIO_ID": "13_19_1" }, "geometry": { "type": "Point", "coordinates": [ -58.4645037, -34.5678255 ] } },
{ "type": "Feature", "properties": { "id": 15.0, "nombre": "015 - JUANA MANSO II", "direccion": "Manso Juana y De La Barra,  Emma", "lat": -34.6004, "long": -58.3636706, "RADIO_ID": "1_13_2" }, "geometry": { "type": "Point", "coordinates": [ -58.3636706, -34.6004 ] } },
{ "type": "Feature", "properties": { "id": 98.0, "nombre": "098 - Belgrano y roca", "direccion": "Moreno 838", "lat": -34.6117981, "long": -58.3784717, "RADIO_ID": "1_15_2" }, "geometry": { "type": "Point", "coordinates": [ -58.378471700000013, -34.6117981 ] } },
{ "type": "Feature", "properties": { "id": 55.0, "nombre": "055 - Bouchard", "direccion": "Viamonte 101", "lat": -34.5994122, "long": -58.36966404, "RADIO_ID": "1_9_13" }, "geometry": { "type": "Point", "coordinates": [ -58.36966404, -34.5994122 ] } },
{ "type": "Feature", "properties": { "id": 258.0, "nombre": "336 - La Pampa", "direccion": "La Pampa 2250", "lat": -34.5655918, "long": -58.4554838, "RADIO_ID": "13_20_5" }, "geometry": { "type": "Point", "coordinates": [ -58.4554838, -34.5655918 ] } },
{ "type": "Feature", "properties": { "id": 297.0, "nombre": "320 - QUIRNO", "direccion": "Quirno 781", "lat": -34.640978, "long": -58.466118, "RADIO_ID": "7_14_8" }, "geometry": { "type": "Point", "coordinates": [ -58.466118, -34.640978 ] } },
{ "type": "Feature", "properties": { "id": 366.0, "nombre": "360 - Plaza Ramon Falcon", "direccion": "Falcon, Ramon L.,Cnel. 3991", "lat": -34.635402, "long": -58.482602, "RADIO_ID": "10_18_7" }, "geometry": { "type": "Point", "coordinates": [ -58.482602, -34.635402 ] } },
{ "type": "Feature", "properties": { "id": 381.0, "nombre": "274 - Plaza Nuestra Señora de la Asuncion", "direccion": "Gavilan 1300", "lat": -34.6153, "long": -58.4665179, "RADIO_ID": "11_22_3" }, "geometry": { "type": "Point", "coordinates": [ -58.4665179, -34.6153 ] } },
{ "type": "Feature", "properties": { "id": 348.0, "nombre": "231 - Margariños Cervantes", "direccion": "Magariños Cervantes, A. 2465", "lat": -34.610482, "long": -58.474369, "RADIO_ID": "11_20_5" }, "geometry": { "type": "Point", "coordinates": [ -58.474369, -34.610482 ] } },
{ "type": "Feature", "properties": { "id": 397.0, "nombre": "308 - Artigas Y Melincue", "direccion": "Artigas, Jose Gervasio, Gral. y Melincue", "lat": -34.5979984, "long": -58.4856262, "RADIO_ID": "11_10_6" }, "geometry": { "type": "Point", "coordinates": [ -58.4856262, -34.5979984 ] } },
{ "type": "Feature", "properties": { "id": 257.0, "nombre": "264 - Plaza Marcos Sastre", "direccion": "Miller y Monroe", "lat": -34.570829, "long": -58.481233, "RADIO_ID": "12_13_2" }, "geometry": { "type": "Point", "coordinates": [ -58.481233, -34.570829 ] } },
{ "type": "Feature", "properties": { "id": 426.0, "nombre": "396 - PLAZA ALBERTI", "direccion": "Arcos y Roosevelt Franklin D.", "lat": -34.555582, "long": -58.457962, "RADIO_ID": "13_8_3" }, "geometry": { "type": "Point", "coordinates": [ -58.457962, -34.555582 ] } },
{ "type": "Feature", "properties": { "id": 398.0, "nombre": "310 - Gregoria Perez", "direccion": "Perez, Gregoria 3314", "lat": -34.5761817, "long": -58.4546508, "RADIO_ID": "13_24_9" }, "geometry": { "type": "Point", "coordinates": [ -58.454650799999989, -34.5761817 ] } },
{ "type": "Feature", "properties": { "id": 416.0, "nombre": "257 - Plaza Francisco Ramirez", "direccion": "Pedraza, Manuela 2700", "lat": -34.5532664, "long": -58.469072, "RADIO_ID": "13_5_5" }, "geometry": { "type": "Point", "coordinates": [ -58.469072, -34.5532664 ] } },
{ "type": "Feature", "properties": { "id": 356.0, "nombre": "245 - Arribeños", "direccion": "Arribeños 3229", "lat": -34.547695, "long": -58.4584684, "RADIO_ID": "13_3_3" }, "geometry": { "type": "Point", "coordinates": [ -58.4584684, -34.547695 ] } },
{ "type": "Feature", "properties": { "id": 351.0, "nombre": "235 - Colegiales", "direccion": "Zabala 2825", "lat": -34.5717033, "long": -58.4520772, "RADIO_ID": "13_23_1" }, "geometry": { "type": "Point", "coordinates": [ -58.4520772, -34.5717033 ] } },
{ "type": "Feature", "properties": { "id": 358.0, "nombre": "249 - Balbín", "direccion": "Conesa 2519", "lat": -34.5615465, "long": -58.4655255, "RADIO_ID": "13_17_1" }, "geometry": { "type": "Point", "coordinates": [ -58.4655255, -34.561546500000013 ] } },
{ "type": "Feature", "properties": { "id": 44.0, "nombre": "044 - Ecoparque", "direccion": "Del Libertador Av. 3260", "lat": -34.5755148, "long": -58.4138829, "RADIO_ID": "14_10_1" }, "geometry": { "type": "Point", "coordinates": [ -58.4138829, -34.5755148 ] } },
{ "type": "Feature", "properties": { "id": 428.0, "nombre": "225 - HOSPITAL TORNU", "direccion": "Avalos 1052", "lat": -34.587458, "long": -58.4739506, "RADIO_ID": "15_5_9" }, "geometry": { "type": "Point", "coordinates": [ -58.4739506, -34.587458 ] } },
{ "type": "Feature", "properties": { "id": 390.0, "nombre": "288- 11 de septiembre", "direccion": "11 De Septiembre De 1888 3314", "lat": -34.547758, "long": -58.459881, "RADIO_ID": "13_3_3" }, "geometry": { "type": "Point", "coordinates": [ -58.459881, -34.547758 ] } },
{ "type": "Feature", "properties": { "id": 234.0, "nombre": "344 - UNIVERSIDAD DI TELLA", "direccion": "Saenz Valiente, Juan Pablo 1001", "lat": -34.5483593, "long": -58.4475673, "RADIO_ID": "13_11_2" }, "geometry": { "type": "Point", "coordinates": [ -58.4475673, -34.5483593 ] } },
{ "type": "Feature", "properties": { "id": 421.0, "nombre": "376 - Ciudad Universitaria II", "direccion": null, "lat": -34.5419013, "long": -58.4438699, "RADIO_ID": "13_11_1" }, "geometry": { "type": "Point", "coordinates": [ -58.4438699, -34.5419013 ] } },
{ "type": "Feature", "properties": { "id": 311.0, "nombre": "213 - Hospital Alvear", "direccion": "Warnes Av. 2626", "lat": -34.5972098, "long": -58.47421143, "RADIO_ID": "15_7_4" }, "geometry": { "type": "Point", "coordinates": [ -58.47421143, -34.5972098 ] } },
{ "type": "Feature", "properties": { "id": 404.0, "nombre": "317 - Cero Más Infinito", "direccion": null, "lat": -34.543949, "long": -58.4408983, "RADIO_ID": "13_11_1" }, "geometry": { "type": "Point", "coordinates": [ -58.4408983, -34.543949 ] } },
{ "type": "Feature", "properties": { "id": 386.0, "nombre": "277 - Coghlan", "direccion": "Estomba 2647", "lat": -34.5656428, "long": -58.475512, "RADIO_ID": "12_8_9" }, "geometry": { "type": "Point", "coordinates": [ -58.475512, -34.5656428 ] } },
{ "type": "Feature", "properties": { "id": 324.0, "nombre": "280 - JURAMENTO", "direccion": "Juramento 5209", "lat": -34.578933, "long": -58.4840556, "RADIO_ID": "12_14_6" }, "geometry": { "type": "Point", "coordinates": [ -58.4840556, -34.578933 ] } },
{ "type": "Feature", "properties": { "id": 247.0, "nombre": "282 - Tronador", "direccion": "Triunvirato Av. y Tronador", "lat": -34.5839895, "long": -58.4666304, "RADIO_ID": "15_4_6" }, "geometry": { "type": "Point", "coordinates": [ -58.4666304, -34.5839895 ] } },
{ "type": "Feature", "properties": { "id": 349.0, "nombre": "232 - Sucre y Martinez", "direccion": "Sucre, Antonio Jose De, Mcal. 3517", "lat": -34.570894, "long": -58.466884, "RADIO_ID": "13_18_9" }, "geometry": { "type": "Point", "coordinates": [ -58.466884, -34.570894 ] } },
{ "type": "Feature", "properties": { "id": 256.0, "nombre": "209 - PAYSANDU", "direccion": "Paysandu 1182", "lat": -34.610398, "long": -58.454304, "RADIO_ID": "6_3_1" }, "geometry": { "type": "Point", "coordinates": [ -58.454304, -34.610398 ] } },
{ "type": "Feature", "properties": { "id": 294.0, "nombre": "363 - Udaondo", "direccion": "Udaondo, Guillermo Av. 1185", "lat": -34.5458835, "long": -58.4520062, "RADIO_ID": "13_3_2" }, "geometry": { "type": "Point", "coordinates": [ -58.4520062, -34.5458835 ] } },
{ "type": "Feature", "properties": { "id": 248.0, "nombre": "346 - Plaza Zapiola", "direccion": "Donado 2001", "lat": -34.5738411, "long": -58.4742812, "RADIO_ID": "12_11_4" }, "geometry": { "type": "Point", "coordinates": [ -58.4742812, -34.5738411 ] } },